District Code,District,School,School Code,School Type,Title I Status,Level,Latitude,Longitude
1,Adair County,Adair County High School,1010,A1,Title 1 Eligible - Schoolwide School,HS,37.107858,-85.328527
1,Adair County,Adair Learning Academy,1012,A6,Not a Title 1 School,HS,37.08540711,-85.30522446
1,Adair County,John Adair Intermediate School,1013,,,ES,,
1,Adair County,Adair County Middle School,1014,A1,Title 1 Eligible - Schoolwide School,MS,37.103889,-85.324549
1,Adair County,Adair County Elementary School,1016,A1,Title 1 Eligible - Schoolwide School,ES,37.111644,-85.329785
1,Adair County,Adair County Primary Center,1020,A1,Title 1 Eligible - Schoolwide School,ES,37.10714077,-85.33294873
5,Allen County,Allen County Primary Center,5010,A1,Title 1 Eligible - Schoolwide School,ES,36.746802,-86.216972
5,Allen County,James E Bazzell Middle School,5015,A1,Title 1 Eligible - Schoolwide School,MS,36.753125,-86.214432
5,Allen County,Allen County-Scottsville High School,5020,A1,Title 1 Eligible - Schoolwide School,HS,36.753959,-86.217027
5,Allen County,Allen County Intermediate Center,5060,A1,Title 1 Eligible - Schoolwide School,ES,36.749177,-86.218524
5,Allen County,Allen County Career and Technical Center,5901,A2,Not a Title 1 School,HS,36.7542,-86.217567
6,Anchorage Independent,Anchorage Independent Public School,6010,A1,Title 1 Eligible - Targeted Assistance School,MS,38.265763,-85.543599
6,Anchorage Independent,Anchorage Independent Public School,6010,A1,Title I Eligible - Targeted Assistance School,ES,38.265763,-85.543599
11,Anderson County,Anderson County High School,11020,A1,Title 1 Eligible - No Program,HS,38.02332064,-84.90806478
11,Anderson County,Robert B. Turner Elementary School,11022,A1,Title 1 Eligible - Schoolwide School,ES,38.0139867,-84.92278488
11,Anderson County,Anderson County Middle School,11025,A1,Title 1 Eligible - No Program,MS,38.03873169,-84.90069753
11,Anderson County,APEX Academy,11030,A5,Not a Title 1 School,HS,38.022454,-84.908411
11,Anderson County,Saffell Street Elementary School,11050,A1,Title 1 Eligible - Schoolwide School,ES,38.03194853,-84.89782558
11,Anderson County,Emma B. Ward Elementary School,11110,A1,Title 1 Eligible - Schoolwide School,ES,38.047489,-84.911785
11,Anderson County,Ezra Sparrow Early Childhood Center,11120,A1,Title 1 Eligible - Schoolwide School,ES,38.048824,-84.913416
12,Ashland Independent,Ashland Virtual Learning Center,12005,A5,Not a Title 1 School,HS,38.450271,-82.623879
12,Ashland Independent,Paul G. Blazer High School,12010,A1,Title 1 Eligible - No Program,HS,38.454541,-82.663218
12,Ashland Independent,Ashland Middle School,12050,A1,Title 1 Eligible - Schoolwide School,MS,38.456244,-82.649855
12,Ashland Independent,Crabbe Elementary School,12070,A1,Title 1 Eligible - Schoolwide School,ES,38.475661,-82.64009
12,Ashland Independent,Hager Elementary School,12080,A1,Title 1 Eligible - Schoolwide School,ES,38.462921,-82.657692
12,Ashland Independent,Oakview Elementary School,12100,A1,Title 1 Eligible - Schoolwide School,ES,38.455073,-82.643467
12,Ashland Independent,Poage Elementary School,12110,A1,Title 1 Eligible - Schoolwide School,ES,38.453768,-82.654893
12,Ashland Independent,Charles Russell Elementary School,12130,A1,Title 1 Eligible - Schoolwide School,ES,38.450253,-82.62394
13,Augusta Independent,Augusta Independent School,13011,A1,Title I Eligible - Schoolwide School,ES,38.773646,-84.003661
13,Augusta Independent,Augusta Independent School,13011,A1,Title I Eligible - Schoolwide School,MS,38.773646,-84.003661
13,Augusta Independent,Augusta Independent School,13011,A1,Title 1 Eligible - Schoolwide School,HS,38.773646,-84.003661
15,Ballard County,Ballard County Middle School,15005,A1,Title 1 Eligible - Schoolwide School,MS,37.068172,-88.987398
15,Ballard County,Ballard Memorial High School,15010,A1,Title 1 Eligible - No Program,HS,37.068001,-88.988021
15,Ballard County,Ballard County Elementary School,15050,A1,Title 1 Eligible - Schoolwide School,ES,37.067183,-88.991159
15,Ballard County,Ballard County Career and Technology Ctr,15905,A2,Not a Title 1 School,HS,37.0688388,-88.9859046
16,Barbourville Independent,Barbourville City School,16011,A1,Title 1 Eligible - Schoolwide School,HS,36.871216,-83.89349
16,Barbourville Independent,Barbourville City School,16011,A1,Title I Eligible - Schoolwide School,ES,36.871216,-83.89349
16,Barbourville Independent,Barbourville City School,16011,A1,Title I Eligible - Schoolwide School,MS,36.871216,-83.89349
17,Bardstown Independent,Bardstown Alternative School,17005,A5,Not a Title 1 School,HS,37.825316,-85.481457
17,Bardstown Independent,Bardstown Elementary School,17010,A1,Title 1 Eligible - Schoolwide School,ES,37.814488,-85.470714
17,Bardstown Independent,Bardstown Primary School,17012,A1,Title 1 Eligible - Schoolwide School,ES,37.823739,-85.474119
17,Bardstown Independent,Bardstown High School,17020,A1,Title 1 Eligible - No Program,HS,37.814849,-85.469137
17,Bardstown Independent,Bardstown Middle School,17030,A1,Title 1 Eligible - No Program,MS,37.815434,-85.469952
21,Barren County,Austin Tracy Elementary School,21010,A1,Title 1 Eligible - Schoolwide School,ES,36.830252,-86.03224
21,Barren County,College Street Campus,21011,A5,Not a Title 1 School,HS,36.991976,-85.910581
21,Barren County,BAVEL,21012,A5,Not a Title 1 School,HS,36.97723,-85.916366
21,Barren County,North Jackson Elementary,21014,A1,Title 1 Eligible - Schoolwide School,ES,37.019622,-85.905006
21,Barren County,Barren County High School,21027,A1,Title 1 Eligible - No Program,HS,36.975084,-85.918673
21,Barren County,Eastern Elementary School,21035,A1,Title 1 Eligible - Schoolwide School,ES,36.982059,-85.832395
21,Barren County,Barren County Middle School,21050,A1,Title 1 Eligible - No Program,MS,36.975174,-85.923374
21,Barren County,Hiseville Elementary School,21080,A1,Title 1 Eligible - Schoolwide School,ES,37.099426,-85.819566
21,Barren County,Park City Elementary School,21130,A1,Title 1 Eligible - Schoolwide School,ES,37.096552,-86.046232
21,Barren County,Red Cross Elementary School,21150,A1,Title 1 Eligible - Schoolwide School,ES,36.986102,-85.939768
21,Barren County,Temple Hill Elementary School,21180,A1,Title 1 Eligible - Schoolwide School,ES,36.886768,-85.846938
25,Bath County,Second Chance Academy,25012,A5,Not a Title 1 School,HS,38.1283997,-83.75520527
25,Bath County,Crossroads Elementary School,25014,A1,Title 1 Eligible - Schoolwide School,ES,38.132788,-83.688928
25,Bath County,Bath County Middle School,25020,A1,Title 1 Eligible - Schoolwide School,MS,38.143288,-83.769992
25,Bath County,Owingsville Elementary School,25030,A1,Title 1 Eligible - Schoolwide School,ES,38.14194,-83.775373
25,Bath County,Bath County High School,25040,A1,Title 1 Eligible - Schoolwide School,HS,38.13713,-83.77687
26,Beechwood Independent,Beechwood Elementary School,26010,A1,Title 1 Eligible - Targeted Assistance School,ES,39.048576,-84.555123
26,Beechwood Independent,Beechwood High School,26020,A1,Not a Title 1 School,HS,39.049345,-84.55556
26,Beechwood Independent,Beechwood High School,26020,A1,Not a Title I School,MS,39.049345,-84.55556
26,Beechwood Independent,Guardian Angel,26420,A6,Not a Title 1 School,HS,39.02886,-84.552239
31,Bell County,Bell Central School Center,31012,A1,Title I Eligible - Schoolwide School,ES,36.710755,-83.697248
31,Bell County,Bell Central School Center,31012,A1,Title 1 Eligible - Schoolwide School,MS,36.710755,-83.697248
31,Bell County,Page School Center,31013,A1,Title 1 Eligible - Schoolwide School,MS,36.729426,-83.640989
31,Bell County,Page School Center,31013,A1,Title I Eligible - Schoolwide School,ES,36.729426,-83.640989
31,Bell County,Bell County High School,31040,A1,Title 1 Eligible - No Program,HS,36.713006,-83.691812
31,Bell County,Frakes School Center,31180,A1,Title I Eligible - Schoolwide School,ES,36.640623,-83.931309
31,Bell County,Frakes School Center,31180,A1,Title 1 Eligible - Schoolwide School,MS,36.640623,-83.931309
31,Bell County,Lone Jack School Center,31250,A1,Title 1 Eligible - Schoolwide School,MS,36.788875,-83.747364
31,Bell County,Lone Jack School Center,31250,A1,Title I Eligible - Schoolwide School,ES,36.788875,-83.747364
31,Bell County,Right Fork School Center,31345,A1,Title 1 Eligible - Schoolwide School,MS,36.794233,-83.586222
31,Bell County,Right Fork School Center,31345,A1,Title I Eligible - Schoolwide School,ES,36.794233,-83.586222
31,Bell County,Yellow Creek School Center,31390,A1,Title I Eligible - Schoolwide School,ES,36.612564,-83.758852
31,Bell County,Yellow Creek School Center,31390,A1,Title 1 Eligible - Schoolwide School,MS,36.612564,-83.758852
32,Bellevue Independent,Bellevue High School,32010,A1,Title 1 Eligible - Schoolwide School,HS,39.102161,-84.481994
32,Bellevue Independent,Bellevue High School,32010,A1,Title I Eligible - Schoolwide School,MS,39.102161,-84.481994
32,Bellevue Independent,Grandview Elementary School,32020,A1,Title 1 Eligible - Schoolwide School,ES,39.101849,-84.475994
34,Berea Independent,Berea Community Elementary School,34010,A1,Title 1 Eligible - Schoolwide School,ES,37.578553,-84.293736
34,Berea Independent,Berea Community Middle School,34015,A1,Title 1 Eligible - Schoolwide School,MS,37.578545,-84.293695
34,Berea Independent,Berea Community High School,34020,A1,Title 1 Eligible - Schoolwide School,HS,37.57857,-84.293647
35,Boone County,A M Yealey Elementary School,35005,A1,Title 1 Eligible - Schoolwide School,ES,38.987751,-84.65965
35,Boone County,Erpenbeck Elementary School,35006,A1,Not a Title 1 School,ES,38.966467,-84.666856
35,Boone County,North Pointe Elementary School,35008,A1,Not a Title 1 School,ES,39.115586,-84.735441
35,Boone County,Camp Ernst Middle School,35010,A1,Title 1 Eligible - No Program,MS,39.012135,-84.705235
35,Boone County,Shirley Mann Elementary School,35011,A1,Not a Title 1 School,ES,38.930369,-84.683324
35,Boone County,Thornwilde Elementary School,35012,A1,Not a Title 1 School,ES,39.0946,-84.740848
35,Boone County,Randall K. Cooper High School,35015,A1,Not a Title 1 School,HS,38.97322,-84.711547
35,Boone County,Longbranch Elementary School,35017,A1,Not a Title 1 School,ES,38.973562,-84.708907
35,Boone County,Steeplechase Elementary School,35018,A1,Title 1 Eligible - Schoolwide School,ES,38.896613,-84.631594
35,Boone County,Rector A. Jones Middle School,35020,A1,Title 1 Eligible - Schoolwide School,MS,38.989023,-84.616814
35,Boone County,Ballyshannon Middle School,35025,A1,Not a Title 1 School,MS,38.956143,-84.702639
35,Boone County,Boone County High School,35030,A1,Title 1 Eligible - No Program,HS,39.00613,-84.631061
35,Boone County,Burlington Elementary School,35040,A1,Title 1 Eligible - Schoolwide School,ES,39.029569,-84.720224
35,Boone County,Charles H. Kelly Elementary School,35041,A1,Title 1 Eligible - Schoolwide School,ES,38.982935,-84.827006
35,Boone County,Conner Middle School,35043,A1,Not a Title 1 School,MS,39.06054,-84.699965
35,Boone County,Conner High School,35045,A1,Not a Title 1 School,HS,39.060832,-84.696798
35,Boone County,Florence Elementary School,35050,A1,Title 1 Eligible - Schoolwide School,ES,39.000607,-84.629821
35,Boone County,Chester Goodridge Elementary School,35055,A1,Title 1 Eligible - Schoolwide School,ES,39.061908,-84.692261
35,Boone County,Hillard Collins Elementary School,35065,A1,Title 1 Eligible - Schoolwide School,ES,38.990028,-84.615818
35,Boone County,Larry A. Ryle High School,35071,A1,Not a Title 1 School,HS,38.932872,-84.677598
35,Boone County,Gray Middle School,35075,A1,Not a Title 1 School,MS,38.929905,-84.679949
35,Boone County,New Haven Elementary School,35080,A1,Not a Title 1 School,ES,38.917117,-84.679638
35,Boone County,Ockerman Elementary School,35081,A1,Title 1 Eligible - Schoolwide School,ES,38.982079,-84.6537
35,Boone County,Stephens Elementary School,35083,A1,Title 1 Eligible - Schoolwide School,ES,39.026591,-84.702181
35,Boone County,Ockerman Middle School,35085,A1,Title 1 Eligible - No Program,MS,38.982212,-84.655711
35,Boone County,ACCEL Academy,35135,A5,Not a Title 1 School,HS,39.033821,-84.732429
35,Boone County,RISE Academy,35170,A5,Not a Title 1 School,HS,39.001604,-84.629902
41,Bourbon County,Bourbon Central Elementary School,41010,A1,Title 1 Eligible - Schoolwide School,ES,38.185545,-84.275516
41,Bourbon County,Cane Ridge Elementary School,41030,A1,Title 1 Eligible - Schoolwide School,ES,38.224229,-84.242586
41,Bourbon County,North Middletown Elementary School,41090,A1,Title 1 Eligible - Schoolwide School,ES,38.147192,-84.110422
41,Bourbon County,Bourbon County High School,41110,A1,Title 1 Eligible - No Program,HS,38.194243,-84.271994
41,Bourbon County,Bourbon County Middle School,41120,A1,Title 1 Eligible - No Program,MS,38.194403,-84.273995
42,Bowling Green Independent,Dishman McGinnis Elementary School,42010,A1,Title 1 Eligible - Schoolwide School,ES,36.994595,-86.457514
42,Bowling Green Independent,Childrens Crisis Stabilization Unit,42011,A6,Not a Title 1 School,HS,36.992236,-86.447079
42,Bowling Green Independent,Warren Regional Juvenile Detention Ctr,42013,A6,Not a Title 1 School,HS,36.994834,-86.444759
42,Bowling Green Independent,Parker-Bennett-Curry School,42057,A1,Title 1 Eligible - Schoolwide School,ES,37.00215,-86.438387
42,Bowling Green Independent,Potter Gray Elementary,42060,A1,Not a Title 1 School,ES,36.983894,-86.417644
42,Bowling Green Independent,Bowling Green Junior High,42065,A1,Title 1 Eligible - Schoolwide School,MS,36.961731,-86.459452
42,Bowling Green Independent,Bowling Green High School,42070,A1,Title 1 Eligible - Schoolwide School,HS,36.96469,-86.441862
42,Bowling Green Independent,T C Cherry Elementary School,42080,A1,Title 1 Eligible - Schoolwide School,ES,36.976322,-86.446546
42,Bowling Green Independent,W R McNeill Elementary School,42090,A1,Title 1 Eligible - Schoolwide School,ES,36.980653,-86.462152
42,Bowling Green Independent,Bowling Green Learning Center,42098,A5,Not a Title 1 School,HS,36.985369,-86.438489
45,Boyd County,Boyd County High School,45010,A1,Title 1 Eligible - No Program,HS,38.373572,-82.713134
45,Boyd County,Cannonsburg Elementary School,45020,A1,Title 1 Eligible - Schoolwide School,ES,38.378376,-82.703209
45,Boyd County,Boyd County Middle School,45035,A1,Title 1 Eligible - Schoolwide School,MS,38.427327,-82.699995
45,Boyd County,Boyd County Central School,45045,A5,Not a Title 1 School,HS,38.291568,-82.770992
45,Boyd County,Summit Elementary School,45080,A1,Title 1 Eligible - Schoolwide School,ES,38.435061,-82.698173
45,Boyd County,Ramey-Estep High School,45085,A6,Not a Title 1 School,HS,38.29148657,-82.77086936
45,Boyd County,Catlettsburg Elementary School,45095,A1,Title 1 Eligible - Schoolwide School,ES,38.406864,-82.60081
45,Boyd County,Ponderosa Elementary School,45097,A1,Title 1 Eligible - Schoolwide School,ES,38.342852,-82.689766
45,Boyd County,Boyd Co Career & Tech Educ Ctr Voc Sch,45120,A2,Not a Title 1 School,HS,38.377155,-82.703039
51,Boyle County,Boyle County Middle School,51003,A1,Title 1 Eligible - No Program,MS,37.651787,-84.793695
51,Boyle County,Boyle County Day Treatment,51004,A6,Not a Title 1 School,HS,37.642601,-84.769413
51,Boyle County,Boyle County High School,51005,A1,Not a Title 1 School,HS,37.649409,-84.798391
51,Boyle County,Junction City Elementary School,51040,A1,Title 1 Eligible - Schoolwide School,ES,37.588744,-84.791133
51,Boyle County,Woodlawn Elementary School,51050,A1,Not a Title 1 School,ES,37.650197,-84.800715
51,Boyle County,Perryville Elementary School,51080,A1,Title 1 Eligible - Schoolwide School,ES,37.648332,-84.957077
55,Bracken County,Bracken County High School,55010,A1,Title 1 Eligible - No Program,HS,38.689909,-84.071694
55,Bracken County,Taylor Elementary School,55050,A1,Title 1 Eligible - Schoolwide School,ES,38.68421,-84.070786
55,Bracken County,Bracken County Middle School,55060,A1,Title 1 Eligible - Schoolwide School,MS,38.684065,-84.072706
61,Breathitt County,Highland-Turner Elementary School,61030,A1,Title 1 Eligible - Schoolwide School,ES,37.484238,-83.484651
61,Breathitt County,Highland-Turner Elementary School,61030,A1,Title I Eligible - Schoolwide School,MS,37.484238,-83.484651
61,Breathitt County,Breathitt Regional School,61031,A6,Not a Title 1 School,HS,37.53804697,-83.41616812
61,Breathitt County,Breathitt County Day Treatment,61033,A6,Not a Title 1 School,HS,37.53889133,-83.41573629
61,Breathitt County,Breathitt County High School,61060,A1,Title I Eligible - Schoolwide School,MS,37.555102,-83.38426
61,Breathitt County,Breathitt County High School,61060,A1,Title 1 Eligible - Schoolwide School,HS,37.555102,-83.38426
61,Breathitt County,LBJ Elementary School,61150,A1,Title I Eligible - Schoolwide School,MS,37.559867,-83.370132
61,Breathitt County,Sebastian Elementary School,61150,A1,Title 1 Eligible - Schoolwide School,ES,37.561409,-83.368583
61,Breathitt County,Marie Roberts-Caney Elementary School,61185,A1,Title 1 Eligible - Schoolwide School,ES,37.473216,-83.325195
61,Breathitt County,Marie Roberts-Caney Elementary School,61185,A1,Title I Eligible - Schoolwide School,MS,37.473216,-83.325195
61,Breathitt County,Rousseau Elementary School,61270,,,MS,,
61,Breathitt County,Rousseau Elementary School,61270,,,ES,,
61,Breathitt County,Sebastian Middle School,61390,,,MS,,
65,Breckinridge County,Breckinridge County High School,65010,A1,Title 1 Eligible - No Program,HS,37.754642,-86.42476
65,Breckinridge County,Hardinsburg Elementary School,65020,A1,Title 1 Eligible - Schoolwide School,ES,37.759312,-86.437927
65,Breckinridge County,Ben Johnson Elementary School,65030,A1,Title 1 Eligible - Schoolwide School,ES,37.596104,-86.383248
65,Breckinridge County,Custer Elementary School,65040,A1,Title 1 Eligible - Schoolwide School,ES,37.740946,-86.251261
65,Breckinridge County,Irvington Elementary School,65050,A1,Title 1 Eligible - Schoolwide School,ES,37.871778,-86.288277
65,Breckinridge County,Breckinridge County Middle School,65100,A1,Title 1 Eligible - Schoolwide School,MS,37.755832,-86.427401
71,Bullitt County,Bernheim Middle School,71005,A1,Title 1 Eligible - Schoolwide School,MS,37.917182,-85.68512
71,Bullitt County,Freedom Elementary School,71006,A1,Title 1 Eligible - Schoolwide School,ES,38.048319,-85.675324
71,Bullitt County,Zoneton Middle School,71007,A1,Title 1 Eligible - Schoolwide School,MS,38.069013,-85.663813
71,Bullitt County,Shepherdsville Elementary,71008,A1,Title 1 Eligible - Schoolwide School,ES,37.996717,-85.719543
71,Bullitt County,Eastside Middle School,71009,A1,Not a Title 1 School,MS,38.027635,-85.603666
71,Bullitt County,Brooks Elementary School,71010,A1,Title 1 Eligible - Schoolwide School,ES,38.06346032,-85.71783431
71,Bullitt County,Bullitt Central High School,71015,A1,Title 1 Eligible - Schoolwide School,HS,37.999109,-85.697787
71,Bullitt County,Bullitt East High School,71016,A1,Not a Title 1 School,HS,38.056114,-85.531337
71,Bullitt County,Bullitt Lick Middle School,71018,A1,Title 1 Eligible - Schoolwide School,MS,37.997756,-85.720392
71,Bullitt County,Cedar Grove Elementary,71020,A1,Title 1 Eligible - Schoolwide School,ES,37.980779,-85.679145
71,Bullitt County,Hebron Middle School,71025,A1,Title 1 Eligible - Schoolwide School,MS,38.048855,-85.669885
71,Bullitt County,Lebanon Junction Elementary,71030,A1,Title 1 Eligible - Schoolwide School,ES,37.848348,-85.726787
71,Bullitt County,Spring Meadows,71032,A6,Not a Title 1 School,HS,38.042847,-85.531969
71,Bullitt County,Maryville Elementary School,71045,A1,Title 1 Eligible - Schoolwide School,ES,38.06128,-85.686253
71,Bullitt County,MT. Washington Middle School,71050,A1,Title 1 Eligible - No Program,MS,38.048087,-85.545196
71,Bullitt County,MT. Washington Elementary,71055,A1,Not a Title 1 School,ES,38.039046,-85.563721
71,Bullitt County,Crossroads Elementary,71060,A1,Title 1 Eligible - Schoolwide School,ES,38.047162,-85.547444
71,Bullitt County,Pleasant Grove Elementary School,71065,A1,Not a Title 1 School,ES,38.025987,-85.612177
71,Bullitt County,Nichols Elementary,71070,A1,Title 1 Eligible - Schoolwide School,ES,38.013748,-85.883998
71,Bullitt County,North Bullitt High School,71075,A1,Title 1 Eligible - No Program,HS,38.048559,-85.671279
71,Bullitt County,Old Mill Elementary School,71078,A1,Not a Title 1 School,ES,38.057538,-85.530902
71,Bullitt County,Overdale Elementary School,71080,A1,Title 1 Eligible - Schoolwide School,ES,38.0809,-85.677184
71,Bullitt County,Roby Elementary School,71090,A1,Title 1 Eligible - Schoolwide School,ES,37.997888,-85.702117
71,Bullitt County,Riverview Opportunity Center,71110,A5,Not a Title 1 School,HS,38.001554,-85.699773
71,Bullitt County,Bullitt Alternative Center,71120,A6,Not a Title 1 School,HS,38.001155,-85.699072
72,Burgin Independent,Burgin High School,72010,,,MS,,
72,Burgin Independent,Burgin High School,72010,,,HS,,
72,Burgin Independent,Burgin Elementary School,72020,,,ES,,
72,Burgin Independent,Burgin Independent School,72030,A1,Title I Eligible - Schoolwide School,ES,37.752505,-84.762557
72,Burgin Independent,Burgin Independent School,72030,A1,Title 1 Eligible - Schoolwide School,HS,37.752505,-84.762557
72,Burgin Independent,Burgin Independent School,72030,A1,Title I Eligible - Schoolwide School,MS,37.752505,-84.762557
75,Butler County,Butler County High School,75030,A1,Not a Title 1 School,HS,37.204984,-86.700604
75,Butler County,North Butler Elementary,75031,A1,Title 1 Eligible - Schoolwide School,ES,37.26472187,-86.60311175
75,Butler County,Butler County Learning Center,75032,A5,Not a Title 1 School,HS,37.21516,-86.705395
75,Butler County,Butler County Middle School,75035,A1,Title 1 Eligible - Schoolwide School,MS,37.231334,-86.682308
75,Butler County,Green River School,75110,A6,Not a Title 1 School,HS,37.290377,-86.735881
75,Butler County,Morgantown Elementary School,75120,A1,Title 1 Eligible - Schoolwide School,ES,37.230814,-86.680754
81,Caldwell County,Caldwell County High School,81010,A1,Title 1 Eligible - No Program,HS,37.1373,-87.896098
81,Caldwell County,Caldwell County Middle School,81020,A1,Title 1 Eligible - Schoolwide School,MS,37.138189,-87.893262
81,Caldwell County,Caldwell County Primary School,81030,A1,Title 1 Eligible - Schoolwide School,ES,37.132545,-87.896609
81,Caldwell County,Caldwell County Elementary School,81070,A1,Title 1 Eligible - Schoolwide School,ES,37.135381,-87.894983
85,Calloway County,Calloway County High School,85020,A1,Title 1 Eligible - Schoolwide School,HS,36.618058,-88.34094
85,Calloway County,East Calloway Elementary School,85025,A1,Title 1 Eligible - Schoolwide School,ES,36.623705,-88.241419
85,Calloway County,North Calloway Elementary School,85035,A1,Title 1 Eligible - Schoolwide School,ES,36.652216,-88.323346
85,Calloway County,Southwest Calloway Elementary School,85045,A1,Title 1 Eligible - Schoolwide School,ES,36.584794,-88.385095
85,Calloway County,Calloway County Middle School,85055,A1,Title 1 Eligible - Schoolwide School,MS,36.619697,-88.342223
85,Calloway County,Calloway County Day Treatment,85095,A6,Not a Title 1 School,HS,36.61604902,-88.3343055
85,Calloway County,Calloway County Alternative Program,85096,A5,Not a Title 1 School,HS,36.61604902,-88.3343055
91,Campbell County,Campbell County Middle School,91011,A1,Title 1 Eligible - No Program,MS,38.965561,-84.392099
91,Campbell County,John W. Reiley Elementary School,91012,A1,Title 1 Eligible - Schoolwide School,ES,38.9059,-84.386416
91,Campbell County,Donald E. Cline Elementary School,91013,A1,Title 1 Eligible - Schoolwide School,ES,39.019095,-84.432125
91,Campbell County,Alexandria Educational Center,91016,A6,Not a Title 1 School,HS,38.963954,-84.39012
91,Campbell County,Campbell Ridge Elementary,91019,A1,Title 1 Eligible - Schoolwide School,ES,38.954688,-84.341526
91,Campbell County,Crossroads Elementary School,91035,A1,Title 1 Eligible - Schoolwide School,ES,39.003706,-84.415391
91,Campbell County,Grant's Lick Elementary School,91050,A1,Title 1 Eligible - No Program,ES,38.859636,-84.397811
91,Campbell County,Campbell County High School,91100,A1,Title 1 Eligible - No Program,HS,38.919522,-84.393884
92,Campbellsville Independent,Campbellsville Elementary School,92010,A1,Title 1 Eligible - Schoolwide School,ES,37.34897117,-85.33037753
92,Campbellsville Independent,Campbellsville Eagle Academy,92011,A5,Not a Title 1 School,HS,37.338455,-85.34792
92,Campbellsville Independent,Campbellsville High School,92020,A1,Title 1 Eligible - Schoolwide School,HS,37.338788,-85.348535
92,Campbellsville Independent,Campbellsville Middle School,92025,A1,Title I Eligible - Schoolwide School,ES,37.338598467,-85.349222266
92,Campbellsville Independent,Campbellsville Middle School,92025,A1,Title 1 Eligible - Schoolwide School,MS,37.33859847,-85.34922227
95,Carlisle County,Carlisle County Middle School,95020,A1,Title 1 Eligible - Schoolwide School,MS,36.832394,-88.932718
95,Carlisle County,Carlisle County High School,95040,A1,Not a Title 1 School,HS,36.833237,-88.932034
95,Carlisle County,Carlisle County Elementary School,95060,A1,Title 1 Eligible - Schoolwide School,ES,36.832747,-88.933441
101,Carroll County,Cartmell Elementary,101005,A1,Title 1 Eligible - Schoolwide School,ES,38.68427816,-85.15782057
101,Carroll County,Kathryn Winn Primary,101010,A1,Title 1 Eligible - Schoolwide School,ES,38.67437815,-85.17164757
101,Carroll County,Carroll County High School,101018,A1,Title 1 Eligible - No Program,HS,38.68300525,-85.15725609
101,Carroll County,Carroll County Middle School,101019,A1,Title 1 Eligible - Schoolwide School,MS,38.67799762,-85.18016236
105,Carter County,Carter Virtual Academy,105040,A5,Not a Title 1 School,HS,38.311484,-83.150184
105,Carter County,Carter Elementary School,105050,,,ES,,
105,Carter County,Heritage Elementary School,105052,A1,Title 1 Eligible - Schoolwide School,ES,38.264792,-82.914721
105,Carter County,Tygart Creek Elementary School,105053,A1,Title 1 Eligible - Schoolwide School,ES,38.29470431,-83.25630804
105,Carter County,Carter City Elementary School,105060,A1,Title 1 Eligible - Schoolwide School,ES,38.42834455,-83.11772775
105,Carter County,East Carter County High School,105120,A1,Title 1 Eligible - Schoolwide School,HS,38.324595,-82.933298
105,Carter County,East Carter Middle School,105130,A1,Title 1 Eligible - Schoolwide School,MS,38.33634,-82.938554
105,Carter County,Olive Hill Elementary School,105250,A1,Title 1 Eligible - Schoolwide School,ES,38.304128,-83.157547
105,Carter County,Prichard Elementary School,105340,A1,Title 1 Eligible - Schoolwide School,ES,38.331125,-82.943829
105,Carter County,Star Elementary School,105450,A1,Title 1 Eligible - Schoolwide School,ES,38.353151,-82.791662
105,Carter County,Upper Tygart Elementary School,105490,,,ES,,
105,Carter County,West Carter County High School,105500,A1,Title 1 Eligible - Schoolwide School,HS,38.311416,-83.150887
105,Carter County,West Carter Middle School,105505,A1,Title 1 Eligible - Schoolwide School,MS,38.310553,-83.148456
105,Carter County,Carter County Career and Technical Center,105905,A2,Not a Title 1 School,HS,38.318789,-83.118221
111,Casey County,Walnut Hill Elementary School,111015,A1,Title 1 Eligible - Schoolwide School,ES,37.281741,-84.95977
111,Casey County,Jones Park Elementary,111026,A1,Title 1 Eligible - Schoolwide School,ES,37.34957,-84.840597
111,Casey County,Casey County High School,111045,A1,Title 1 Eligible - Schoolwide School,HS,37.326751,-84.905032
111,Casey County,Casey County Middle School,111070,A1,Title 1 Eligible - Schoolwide School,MS,37.32509,-84.907035
111,Casey County,Liberty Elementary School,111190,A1,Title 1 Eligible - Schoolwide School,ES,37.316765,-84.9346
113,Caverna Independent,Caverna Elementary School,113025,A1,Title 1 Eligible - Schoolwide School,ES,37.138451,-85.966006
113,Caverna Independent,Caverna Middle School,113026,A1,Title 1 Eligible - Schoolwide School,MS,37.152271,-85.932446
113,Caverna Independent,Caverna High School,113030,A1,Title 1 Eligible - No Program,HS,37.152614,-85.931931
115,Christian County,Christian County Public Schools VLA,115012,A5,Not a Title 1 School,HS,36.877638,-87.488264
115,Christian County,Martin Luther King Jr. Elementary School,115017,A1,Title 1 Eligible - Schoolwide School,ES,36.842702,-87.433068
115,Christian County,Belmont Elementary School,115020,,,ES,,
115,Christian County,Cumberland Hall School,115023,A6,Not a Title 1 School,HS,36.735194,-87.471003
115,Christian County,Freedom Elementary School,115026,A1,Title 1 Eligible - Schoolwide School,ES,36.891644,-87.489775
115,Christian County,Christian County High School,115030,A1,Title 1 Eligible - Schoolwide School,HS,36.87892516,-87.49288328
115,Christian County,Christian County Middle School,115035,A1,Title 1 Eligible - Schoolwide School,MS,36.877189,-87.491835
115,Christian County,Crofton Elementary School,115040,A1,Title 1 Eligible - Schoolwide School,ES,37.03573286,-87.48424698
115,Christian County,North Drive Middle School,115045,,,MS,,
115,Christian County,Hopkinsville High School,115050,A1,Title 1 Eligible - Schoolwide School,HS,36.84124934,-87.50618056
115,Christian County,Indian Hills Elementary School,115055,A1,Title 1 Eligible - Schoolwide School,ES,36.85406607,-87.51637439
115,Christian County,Hopkinsville Middle School,115058,A1,Title 1 Eligible - Schoolwide School,MS,36.842617,-87.507736
115,Christian County,Bluegrass Learning Academy,115100,A5,Not a Title 1 School,HS,36.818325,-87.503248
115,Christian County,Holiday Elementary School,115105,,,ES,,
115,Christian County,Lacy Elementary School,115110,,,ES,,
115,Christian County,Millbrooke Elementary School,115125,A1,Title 1 Eligible - Schoolwide School,ES,36.84921638,-87.52819792
115,Christian County,Pembroke Elementary School,115130,A1,Title 1 Eligible - Schoolwide School,ES,36.76367163,-87.37041989
115,Christian County,Sinking Fork Elementary School,115150,A1,Title 1 Eligible - Schoolwide School,ES,36.90194847,-87.55606648
115,Christian County,South Christian Elementary School,115170,A1,Title 1 Eligible - Schoolwide School,ES,36.726172,-87.55819403
115,Christian County,Christian County Day Treatment,115180,A6,Not a Title 1 School,HS,36.878797,-87.489012
115,Christian County,Gateway Academy to Innovation & Tech.,115975,A2,Not a Title 1 School,HS,36.878712,-87.486918
121,Clark County,Willis H. Justice Elementary School,121002,A1,Title 1 Eligible - Schoolwide School,ES,38.005278,-84.168922
121,Clark County,Strode Station Elementary School,121004,A1,Title 1 Eligible - Schoolwide School,ES,38.00160134,-84.22228055
121,Clark County,Shearer Elementary School,121006,A1,Title 1 Eligible - Schoolwide School,ES,37.98989972,-84.1704254
121,Clark County,William G. Conkwright Elementary,121008,A1,Title 1 Eligible - Schoolwide School,ES,38.00564796,-84.16747843
121,Clark County,Phoenix Academy,121013,A6,Not a Title 1 School,HS,37.977147,-84.194225
121,Clark County,Central Elementary School,121020,,,ES,,
121,Clark County,Robert D. Campbell Jr. High,121023,A1,Title 1 Eligible - Schoolwide School,MS,37.97923276,-84.19330751
121,Clark County,Rev. Henry E. Baker Sr. Interm. School,121026,A1,Title I Eligible - Schoolwide School,MS,38.002886373,-84.219262528
121,Clark County,Rev. Henry E. Baker Sr. Interm. School,121026,A1,Title 1 Eligible - Schoolwide School,ES,38.00288637,-84.21926253
121,Clark County,George Rogers Clark High School,121030,A1,Title 1 Eligible - Schoolwide School,HS,37.961388,-84.213835
121,Clark County,Conkwright Middle School,121035,,,MS,,
121,Clark County,Fannie Bush Elementary,121040,,,ES,,
121,Clark County,Hannah McClure Elementary,121050,,,ES,,
121,Clark County,Willis H. Justice Elementary School,121060,A1,,ES,,
121,Clark County,Clark Middle School,121070,,,MS,,
121,Clark County,Pilot View Elementary School,121080,,,ES,,
121,Clark County,Providence Elementary,121090,,,ES,,
121,Clark County,Shearer Elementary School,121095,,,ES,,
121,Clark County,Trapp Elementary School,121100,,,ES,,
121,Clark County,Strode Station Elementary,121120,,,ES,,
125,Clay County,Big Creek Elementary,125040,A1,Title 1 Eligible - Schoolwide School,ES,37.169863,-83.583929
125,Clay County,Horse Creek Learning Center,125041,A5,Not a Title 1 School,HS,37.137209,-83.766872
125,Clay County,Burning Springs Elementary,125070,A1,Title 1 Eligible - Schoolwide School,ES,37.271175,-83.651475
125,Clay County,Clay County Middle School,125095,A1,Title 1 Eligible - Schoolwide School,MS,37.157982,-83.765682
125,Clay County,Clay County High School,125100,A1,Title 1 Eligible - No Program,HS,37.180037,-83.766086
125,Clay County,Goose Rock Elementary,125200,A1,Title 1 Eligible - Schoolwide School,ES,37.081952,-83.693755
125,Clay County,Hacker Elementary School,125220,A1,Title 1 Eligible - Schoolwide School,ES,37.160561,-83.818146
125,Clay County,Manchester Elementary School,125500,A1,Title 1 Eligible - Schoolwide School,ES,37.177411,-83.771188
125,Clay County,Oneida Elementary School,125570,A1,Title 1 Eligible - Schoolwide School,ES,37.271175,-83.651475
125,Clay County,Paces Creek Elementary,125580,A1,Title 1 Eligible - Schoolwide School,ES,37.133448,-83.75681
131,Clinton County,Albany Elementary School,131015,A1,Title 1 Eligible - Schoolwide School,ES,36.699071,-85.141888
131,Clinton County,Foothills Academy,131016,A6,Not a Title 1 School,HS,36.75083382,-85.20903597
131,Clinton County,Clinton County Early Childhood Center,131020,A1,Title 1 Eligible - Schoolwide School,ES,36.710371,-85.135511
131,Clinton County,Clinton County Middle School,131045,A1,Title 1 Eligible - Schoolwide School,MS,36.717067,-85.138726
131,Clinton County,Clinton County High School,131050,A1,Title 1 Eligible - Schoolwide School,HS,36.709286,-85.133032
132,Cloverport Independent,Frederick Fraize High School,132010,A1,Not a Title I School,HS,37.834009,-86.632297
132,Cloverport Independent,William H Natcher Elementary School,132020,A1,Title I Eligible - Schoolwide School,ES,37.834009,-86.632297
132,Cloverport Independent,Frederick Fraize Middle School,132025,A1,Not a Title I School,MS,37.834009,-86.632297
132,Cloverport Independent,Cloverport Independent School,132030,,,ES,,
132,Cloverport Independent,Cloverport Independent School,132030,,,MS,,
132,Cloverport Independent,Cloverport Independent School,132030,A1,Title 1 Eligible - Schoolwide School,HS,37.834012,-86.632385
133,Corbin Independent,Corbin Educational Center,133012,A6,Not a Title 1 School,HS,36.940675,-84.094207
133,Corbin Independent,Corbin Preschool,133016,A4,Not a Title 1 School,,36.953332,-84.087096
133,Corbin Independent,Corbin Elementary,133017,A1,Title I Eligible - Schoolwide School,ES,36.941381,-84.098087
133,Corbin Independent,Corbin Intermediate,133018,A1,Title I Eligible - Schoolwide School,MS,36.933519,-84.096008
133,Corbin Independent,Corbin Intermediate,133018,A1,Title I Eligible - Schoolwide School,ES,36.933519,-84.096008
133,Corbin Independent,CORBIN ELEMENTARY SCHOOL,133019,A1,Title 1 Eligible - Schoolwide School,ES,36.94251,-84.096217
133,Corbin Independent,Corbin High School,133040,A1,Title 1 Eligible - Schoolwide School,HS,36.930892,-84.094569
133,Corbin Independent,Corbin Middle School,133050,A1,Title 1 Eligible - Schoolwide School,MS,36.951149,-84.084909
133,Corbin Independent,Corbin Primary,133070,A1,Title 1 Eligible - Schoolwide School,ES,36.926935,-84.148465
133,Corbin Independent,Corbin School of Innovation,133100,A5,Not a Title 1 School,HS,36.916264,-84.12192
134,Covington Independent,Covington Adult High School,134011,A5,Not a Title 1 School,HS,39.06160618,-84.49956373
134,Covington Independent,Transformational Learning Center,134013,A5,Not a Title 1 School,HS,39.08592734,-84.53924312
134,Covington Independent,Holmes Middle School,134017,A1,Title 1 Eligible - Schoolwide School,MS,39.061325,-84.501847
134,Covington Independent,Holmes High School,134019,A1,Title 1 Eligible - Schoolwide School,HS,39.062011,-84.500286
134,Covington Independent,John G Carlisle Elementary,134110,A1,Title 1 Eligible - Schoolwide School,ES,39.080794,-84.514054
134,Covington Independent,Latonia Elementary School,134115,A1,Title 1 Eligible - Schoolwide School,ES,39.044095,-84.498031
134,Covington Independent,Ninth District Elementary,134150,A1,Title 1 Eligible - Schoolwide School,ES,39.052306,-84.509323
134,Covington Independent,Glenn O Swing Elementary,134160,A1,Title 1 Eligible - Schoolwide School,ES,39.065092,-84.512611
134,Covington Independent,Sixth District Elementary School,134170,A1,Title 1 Eligible - Schoolwide School,ES,39.069293,-84.500094
134,Covington Independent,Chapman Vocational Education Center,134906,A2,Not a Title 1 School,HS,39.06154823,-84.50168046
135,Crittenden County,Crittenden County High School,135020,A1,Title 1 Eligible - Schoolwide School,HS,37.330325,-88.090782
135,Crittenden County,Pathway Academy High School,135022,A5,Not a Title 1 School,HS,37.331671,-88.094433
135,Crittenden County,Crittenden County Middle School,135025,A1,Title 1 Eligible - Schoolwide School,MS,37.330056,-88.091461
135,Crittenden County,Crittenden County Elementary School,135100,A1,Title 1 Eligible - Schoolwide School,ES,37.316342,-88.0965
141,Cumberland County,Cumberland County Elementary School,141070,A1,Title 1 Eligible - Schoolwide School,ES,36.794535,-85.369008
141,Cumberland County,Cumberland County Middle School,141075,A1,Title 1 Eligible - Schoolwide School,MS,36.798594,-85.36147
141,Cumberland County,Cumberland County High School,141080,A1,Title 1 Eligible - Schoolwide School,HS,36.79946,-85.362635
143,Danville Independent,Mary G. Hogsett Primary School,143003,A1,Title 1 Eligible - Schoolwide School,ES,37.645146,-84.764717
143,Danville Independent,John W. Bate Middle School,143005,A1,Title 1 Eligible - Schoolwide School,MS,37.641868,-84.76499
143,Danville Independent,Edna L. Toliver Intermediate School,143010,A1,Title 1 Eligible - Schoolwide School,ES,37.647794,-84.783062
143,Danville Independent,Anchor Academy,143015,A5,Not a Title 1 School,HS,37.64966,-84.768064
143,Danville Independent,Danville High School,143030,A1,Title 1 Eligible - No Program,HS,37.649249,-84.766958
143,Danville Independent,Hogsett Elementary School,143040,,,ES,,
143,Danville Independent,Toliver Elementary School,143060,,,ES,,
143,Danville Independent,Jennie Rogers Elementary School,143110,,,ES,,
143,Danville Independent,Sunrise Academy,143350,A6,Not a Title 1 School,HS,37.65267947,-84.78949602
145,Daviess County,Apollo High School,145005,A1,Title 1 Eligible - No Program,HS,37.731011,-87.143686
145,Daviess County,Meadow Lands Elementary School,145006,A1,Title 1 Eligible - Schoolwide School,ES,37.770328,-87.057066
145,Daviess County,East View Elementary School,145007,A1,Title 1 Eligible - Schoolwide School,ES,37.80888,-87.019151
145,Daviess County,F T Burns Middle School,145008,A1,Title 1 Eligible - No Program,MS,37.726032,-87.132717
145,Daviess County,Daviess County High School,145010,A1,Title 1 Eligible - No Program,HS,37.72959,-87.085038
145,Daviess County,Southern Oaks Elementary School,145011,A1,Title 1 Eligible - Schoolwide School,ES,37.668823,-87.126314
145,Daviess County,The Center for Academic Improvement,145015,A5,Not a Title 1 School,HS,37.737646,-87.143668
145,Daviess County,Daviess County Middle School,145020,A1,Title 1 Eligible - No Program,MS,37.775593,-87.095155
145,Daviess County,Highland Elementary School,145025,A1,Title 1 Eligible - Schoolwide School,ES,37.758319,-87.065818
145,Daviess County,Deer Park Elementary School,145040,A1,Title 1 Eligible - Schoolwide School,ES,37.716452,-87.07696
145,Daviess County,Sorgho Elementary School,145070,A1,Title 1 Eligible - Schoolwide School,ES,37.753098,-87.192498
145,Daviess County,Audubon Elementary School,145085,A1,Title 1 Eligible - Schoolwide School,ES,37.776332,-87.173957
145,Daviess County,Tamarack Elementary School,145095,A1,Title 1 Eligible - Schoolwide School,ES,37.735776,-87.132107
145,Daviess County,West Louisville Elementary School,145130,A1,Title 1 Eligible - Schoolwide School,ES,37.68564,-87.337581
145,Daviess County,Whitesville Elementary School,145140,A1,Title 1 Eligible - Schoolwide School,ES,37.682245,-86.884888
145,Daviess County,F T Burns Elementary School,145145,A1,Title 1 Eligible - Schoolwide School,ES,37.727008,-87.131938
145,Daviess County,Country Heights Elementary School,145150,A1,Title 1 Eligible - Schoolwide School,ES,37.741794,-87.026235
145,Daviess County,College View Middle School,145155,A1,Title 1 Eligible - No Program,MS,37.713929,-87.075819
145,Daviess County,Owensboro Day Treatment,145160,A6,Not a Title 1 School,HS,37.75614812,-87.06413944
145,Daviess County,Valley High School,145170,A6,Not a Title 1 School,HS,37.784573,-87.157457
145,Daviess County,Valley Elementary School,145175,A6,Not a Title 1 School,MS,37.784577,-87.157468
145,Daviess County,Heritage Park High School,145180,A5,Not a Title 1 School,HS,37.7379531,-87.14378496
146,Dawson Springs Independent,Dawson Springs Elementary,146017,A1,Title 1 Eligible - Schoolwide School,ES,37.167767,-87.687958
146,Dawson Springs Independent,Dawson Springs Jr/Sr High School,146018,A1,Title 1 Eligible - Schoolwide School,HS,37.167135,-87.68733
146,Dawson Springs Independent,Dawson Springs Jr/Sr High School,146018,A1,Title I Eligible - Schoolwide School,MS,37.167135,-87.68733
146,Dawson Springs Independent,DSISD Virtual Academy,146035,A5,Not a Title 1 School,HS,37.167407,-87.68832
147,Dayton Independent,Dayton High School,147010,A1,Title I Eligible - Schoolwide School,MS,39.116975,-84.470801
147,Dayton Independent,Dayton High School,147010,A1,Title 1 Eligible - Schoolwide School,HS,39.116975,-84.470801
147,Dayton Independent,Lincoln Elementary School,147030,A1,Title 1 Eligible - Schoolwide School,ES,39.114843,-84.47118
147,Dayton Independent,Regional School Programs,147120,A5,Not a Title 1 School,HS,39.018011,-84.434477
149,East Bernstadt Independent,East Bernstadt Elementary School,149010,A1,Title I Eligible - Schoolwide School,ES,37.19014,-84.114118
149,East Bernstadt Independent,East Bernstadt Elementary School,149010,A1,Title 1 Eligible - Schoolwide School,MS,37.19014,-84.114118
151,Edmonson County,South Edmonson Elementary School,151020,A1,Title 1 Eligible - Schoolwide School,ES,37.118865,-86.25305
151,Edmonson County,Edmonson County 5/6 Center,151022,A1,Title 1 Eligible - Schoolwide School,ES,37.190055,-86.265201
151,Edmonson County,Edmonson County 5/6 Center,151022,A1,Title I Eligible - Schoolwide School,MS,37.190055,-86.265201
151,Edmonson County,Edmonson County Middle School,151050,A1,Title 1 Eligible - Schoolwide School,MS,37.19268,-86.251805
151,Edmonson County,Edmonson County High School,151060,A1,Title 1 Eligible - No Program,HS,37.19342,-86.252157
151,Edmonson County,Kyrock Elementary School,151080,A1,Title 1 Eligible - Schoolwide School,ES,37.259884,-86.28413
152,Elizabethtown Independent,Elizabethtown High School,152010,A1,Title 1 Eligible - No Program,HS,37.704395,-85.852678
152,Elizabethtown Independent,Helmwood Heights Elementary School,152015,A1,Title 1 Eligible - Schoolwide School,ES,37.708597,-85.882092
152,Elizabethtown Independent,Morningside Elementary School,152020,A1,Title 1 Eligible - Schoolwide School,ES,37.702477,-85.86198
152,Elizabethtown Independent,Panther Academy,152025,A1,Title 1 Eligible - Schoolwide School,ES,37.702154,-85.851691
152,Elizabethtown Independent,Talton K Stone Middle School,152035,A1,Title 1 Eligible - Schoolwide School,MS,37.70313,-85.861358
152,Elizabethtown Independent,Valley View Education Center,152041,A5,Not a Title 1 School,HS,37.685307,-85.849223
155,Elliott County,Elliott County Primary School,155100,A1,Title 1 Eligible - Schoolwide School,ES,38.132341,-83.093356
155,Elliott County,Isonville Elementary School,155140,A1,Title I Eligible - Schoolwide School,ES,38.060208,-83.047514
155,Elliott County,Lakeside Elementary School,155160,A1,Title I Eligible - Schoolwide School,ES,38.132374,-83.093404
155,Elliott County,Elliott County Intermediate School,155270,A1,Title 1 Eligible - Schoolwide School,ES,38.086282,-83.128353
155,Elliott County,Elliott County Middle School,155275,A1,Title 1 Eligible - No Program,MS,38.086334,-83.128278
155,Elliott County,Elliott County High School,155280,A1,Title 1 Eligible - No Program,HS,38.084755,-83.129449
155,Elliott County,Elliott County High School,155280,A1,Title I Eligible - No Program,MS,38.084755,-83.129449
156,Eminence Independent,Eminence High School,156010,A1,Title 1 Eligible - Schoolwide School,HS,38.372484,-85.182951
156,Eminence Independent,Eminence High School,156010,A1,Title I Eligible - Schoolwide School,MS,38.372484,-85.182951
156,Eminence Independent,Eminence Elementary School,156020,A1,Title 1 Eligible - Schoolwide School,ES,38.372959,-85.182699
156,Eminence Independent,Bluegrass Challenge Academy,156025,A5,Not a Title 1 School,HS,37.900397,-85.982014
157,Erlanger-Elsmere Independent,Lindeman Elementary School,157003,A1,Title 1 Eligible - Schoolwide School,ES,39.027853,-84.606758
157,Erlanger-Elsmere Independent,Arnett Elementary School,157005,A1,Title 1 Eligible - Schoolwide School,ES,39.005503,-84.592729
157,Erlanger-Elsmere Independent,Howell Elementary School,157010,A1,Title 1 Eligible - Schoolwide School,ES,39.00534,-84.60103
157,Erlanger-Elsmere Independent,Lloyd High School,157030,A1,Title 1 Eligible - No Program,HS,39.020297,-84.608046
157,Erlanger-Elsmere Independent,Miles Elementary School,157050,A1,Title 1 Eligible - Schoolwide School,ES,39.013057,-84.610692
157,Erlanger-Elsmere Independent,Tichenor Middle School,157060,A1,Title 1 Eligible - No Program,MS,39.018919,-84.60683
157,Erlanger-Elsmere Independent,Bartlett Educational Center,157061,A5,Not a Title 1 School,HS,39.018564,-84.606609
161,Estill County,Estill Springs Elementary,161011,A1,Title 1 Eligible - Schoolwide School,ES,37.7093,-83.974817
161,Estill County,Estill County Success Academy,161014,A5,Not a Title 1 School,HS,37.736023,-83.988658
161,Estill County,Estill County Middle School,161085,A1,Title 1 Eligible - Schoolwide School,MS,37.737476,-83.989401
161,Estill County,Estill County High School,161090,A1,Title 1 Eligible - Schoolwide School,HS,37.735957,-83.988682
161,Estill County,West Irvine Intermediate,161280,A1,Title 1 Eligible - Schoolwide School,ES,37.701016,-83.987638
162,Fairview Independent,Fairview Elementary School,162011,A1,Title 1 Eligible - Schoolwide School,ES,38.468746,-82.680874
162,Fairview Independent,Fairview High School,162020,A1,Title 1 Eligible - Schoolwide School,HS,38.479993,-82.675133
162,Fairview Independent,Fairview High School,162020,A1,Title I Eligible - Schoolwide School,MS,38.479993,-82.675133
165,Fayette County,Arlington Elementary School,165005,A1,Title 1 Eligible - Schoolwide School,ES,38.058933,-84.477449
165,Fayette County,Ashland Elementary School,165007,A1,Title 1 Eligible - Schoolwide School,ES,38.037896,-84.480699
165,Fayette County,Veterans Park Elementary School,165012,A1,Not a Title 1 School,ES,37.959636,-84.501058
165,Fayette County,Beaumont Middle School,165015,A1,Title 1 Eligible - No Program,MS,38.02853,-84.558177
165,Fayette County,Scapa At Bluegrass,165018,A1,Not a Title I School,ES,38.027107,-84.525246
165,Fayette County,Scapa At Bluegrass,165018,A1,Not a Title 1 School,MS,38.027107,-84.525246
165,Fayette County,Martin L King Acad for Excellence Alt,165021,A5,Not a Title 1 School,HS,38.025612,-84.448553
165,Fayette County,Crawford Middle School,165025,A1,Title 1 Eligible - Schoolwide School,MS,38.05138,-84.430937
165,Fayette County,Bryan Station Middle School,165030,A1,Title 1 Eligible - Schoolwide School,MS,38.066559,-84.453177
165,Fayette County,Cassidy Elementary School,165032,A1,Not a Title 1 School,ES,38.025101,-84.49066
165,Fayette County,Edythe Jones Hayes Middle School,165034,A1,Title 1 Eligible - No Program,MS,37.980379,-84.411338
165,Fayette County,Deep Springs Elementary School,165035,A1,Title 1 Eligible - Schoolwide School,ES,38.061049,-84.446154
165,Fayette County,Dixie Elementary Magnet School,165036,A1,Title 1 Eligible - Schoolwide School,ES,38.053805,-84.43766
165,Fayette County,Garden Springs Elementary School,165037,A1,Title 1 Eligible - Schoolwide School,ES,38.025941,-84.54829
165,Fayette County,Harrison Elementary School,165038,A1,Title 1 Eligible - Schoolwide School,ES,38.052353,-84.500493
165,Fayette County,Henry Clay High School,165039,A1,Title 1 Eligible - No Program,HS,38.01655,-84.469998
165,Fayette County,Athens-Chilesburg Elementary,165045,A1,Not a Title 1 School,ES,37.992651,-84.400929
165,Fayette County,Booker T Washington Academy Elementary,165046,,,ES,,
165,Fayette County,Rosa Parks Elementary School,165052,A1,Not a Title 1 School,ES,38.023931,-84.564779
165,Fayette County,The Stables,165054,A5,Not a Title 1 School,HS,38.165754,-84.52908
165,Fayette County,Booker T Washington Elementary School,165055,A1,Title 1 Eligible - Schoolwide School,ES,38.069086,-84.500825
165,Fayette County,William Wells Brown Elementary,165056,A1,Title 1 Eligible - Schoolwide School,ES,38.045729,-84.479757
165,Fayette County,Liberty Elementary,165057,A1,Title 1 Eligible - No Program,ES,38.019319,-84.432809
165,Fayette County,Sandersville Elementary,165058,A1,Title 1 Eligible - Schoolwide School,ES,38.103211,-84.537599
165,Fayette County,Wellington Elementary,165059,A1,Not a Title 1 School,ES,37.99265,-84.5447
165,Fayette County,Lafayette High School,165060,A1,Title 1 Eligible - No Program,HS,38.025351,-84.525759
165,Fayette County,Lansdowne Elementary School,165062,A1,Title 1 Eligible - Schoolwide School,ES,37.98984,-84.510652
165,Fayette County,Leestown Middle School,165065,A1,Title 1 Eligible - Schoolwide School,MS,38.071759,-84.533787
165,Fayette County,Family Care Center,165066,A5,Not a Title 1 School,HS,38.046323,-84.525421
165,Fayette County,Lexington Trad Magnet School,165067,A1,Title 1 Eligible - Schoolwide School,MS,38.050043,-84.491035
165,Fayette County,Locust Trace AgriScience Center,165068,A2,Not a Title 1 School,HS,38.10583,-84.571278
165,Fayette County,Madeline M Breckinridge Elem School,165072,A1,Title 1 Eligible - Schoolwide School,ES,38.023368,-84.461628
165,Fayette County,Maxwell Spanish Immersion Elem School,165074,A1,Not a Title 1 School,ES,38.036259,-84.493914
165,Fayette County,Morton Middle School,165076,A1,Title 1 Eligible - No Program,MS,38.024115,-84.491109
165,Fayette County,Northern Elementary School,165077,A1,Title 1 Eligible - Schoolwide School,ES,38.063647,-84.463095
165,Fayette County,Picadome Elementary School,165080,A1,Title 1 Eligible - Schoolwide School,ES,38.030773,-84.527289
165,Fayette County,Southern Elementary School,165081,A1,Title 1 Eligible - Schoolwide School,ES,37.980379,-84.513669
165,Fayette County,Squires Elementary School,165082,A1,Title 1 Eligible - Schoolwide School,ES,37.970409,-84.458867
165,Fayette County,Stonewall Elementary School,165085,A1,Not a Title 1 School,ES,38.000402,-84.554479
165,Fayette County,Russell Cave Elementary School,165090,A1,Title 1 Eligible - Schoolwide School,ES,38.120603,-84.446018
165,Fayette County,Tates Creek Elementary School,165095,A1,Title 1 Eligible - Schoolwide School,ES,37.985053,-84.482089
165,Fayette County,Coventry Oak Elementary,165098,A1,Title 1 Eligible - Schoolwide School,ES,38.103278,-84.512325
165,Fayette County,Garrett Morgan Elementary,165099,A1,Not a Title 1 School,ES,38.006605,-84.401432
165,Fayette County,Tates Creek Middle School,165100,A1,Title 1 Eligible - Schoolwide School,MS,37.985271,-84.48115
165,Fayette County,Tates Creek High School,165105,A1,Title 1 Eligible - No Program,HS,37.984707,-84.479764
165,Fayette County,Rise STEM Academy for Girls,165106,A5,Not a Title 1 School,MS,38.103966,-84.517022
165,Fayette County,Clays Mill Elementary School,165120,A1,Not a Title 1 School,ES,38.017919,-84.537004
165,Fayette County,Frederick Douglass High School,165125,A1,Title 1 Eligible - No Program,HS,38.040403,-84.435811
165,Fayette County,STEAM Academy,165130,A5,Not a Title 1 School,HS,38.053314,-84.485511
165,Fayette County,Success Academy,165133,A5,Not a Title 1 School,HS,38.083061,-84.510489
165,Fayette County,Yates Elementary School,165140,A1,Title 1 Eligible - Schoolwide School,ES,38.048653,-84.453419
165,Fayette County,Glendover Elementary School,165150,A1,Title 1 Eligible - Schoolwide School,ES,38.008018,-84.502118
165,Fayette County,Meadowthorpe Elementary School,165160,A1,Title 1 Eligible - Schoolwide School,ES,38.073069,-84.527009
165,Fayette County,Bryan Station High School,165170,A1,Title 1 Eligible - Schoolwide School,HS,38.067239,-84.456803
165,Fayette County,Mary Todd Elementary School,165180,A1,Title 1 Eligible - Schoolwide School,ES,38.082735,-84.45314
165,Fayette County,James Lane Allen Elementary School,165190,A1,Title 1 Eligible - Schoolwide School,ES,38.036623,-84.549205
165,Fayette County,Paul Laurence Dunbar High School,165200,A1,Title 1 Eligible - No Program,HS,38.017362,-84.576756
165,Fayette County,Jessie M Clark Middle School,165225,A1,Title 1 Eligible - No Program,MS,37.998559,-84.547787
165,Fayette County,Cardinal Valley Elementary School,165240,A1,Title 1 Eligible - Schoolwide School,ES,38.054259,-84.543293
165,Fayette County,Winburn Middle School,165245,A1,Title 1 Eligible - Schoolwide School,MS,38.087573,-84.47829
165,Fayette County,Millcreek Elementary School,165255,A1,Title 1 Eligible - Schoolwide School,ES,37.975375,-84.48778
165,Fayette County,Carter G. Woodson Preparatory Academy,165270,A5,Not a Title 1 School,ES,38.036167,-84.485275
165,Fayette County,Carter G. Woodson Academy,165275,A5,Not a Title 1 School,HS,38.039036,-84.434635
165,Fayette County,Southern Middle School,165525,A1,Title 1 Eligible - No Program,MS,37.979407,-84.511561
165,Fayette County,Brenda Cowan Elementary,165531,A1,Title 1 Eligible - No Program,ES,37.974015,-84.404978
165,Fayette County,Julius Marks Elementary School,165620,A1,Title 1 Eligible - Schoolwide School,ES,37.998879,-84.49146
165,Fayette County,FCPS Virtual Academy,165645,A5,Not a Title 1 School,HS,38.036167,-84.485275
165,Fayette County,Audrey Grevious Center,165651,A6,Not a Title 1 School,HS,38.036173,-84.485289
165,Fayette County,Fayette County Learning Center,165898,A5,Not a Title 1 School,HS,38.071045,-84.506448
165,Fayette County,Opportunity Middle College,165899,A5,Not a Title 1 School,HS,38.06836,-84.536547
165,Fayette County,Southside Technical Center,165904,A2,Not a Title 1 School,HS,38.028729,-84.530231
165,Fayette County,Eastside Technical Center,165905,A2,Not a Title 1 School,HS,38.025594,-84.446797
171,Fleming County,Ewing Elementary School,171020,A1,Title 1 Eligible - Schoolwide School,ES,38.417667,-83.836819
171,Fleming County,Simons Middle School,171030,A1,Title 1 Eligible - Schoolwide School,MS,38.425931,-83.736691
171,Fleming County,Fleming County High School,171035,A1,Title 1 Eligible - Schoolwide School,HS,38.421549,-83.763978
171,Fleming County,Flemingsburg Elementary School,171040,A1,Title 1 Eligible - Schoolwide School,ES,38.425702,-83.73938
171,Fleming County,E P Ward Elementary School,171050,A1,Title 1 Eligible - Schoolwide School,ES,38.335819,-83.594162
171,Fleming County,Hillsboro Elementary School,171060,A1,Title 1 Eligible - Schoolwide School,ES,38.296286,-83.658041
175,Floyd County,Duff-Allen Central Elementary,175010,A1,Title 1 Eligible - Schoolwide School,MS,37.507007,-82.815665
175,Floyd County,Duff-Allen Central Elementary,175010,A1,Title I Eligible - Schoolwide School,ES,37.507007,-82.815665
175,Floyd County,Prestonsburg Elementary School,175019,A1,Title 1 Eligible - Schoolwide School,ES,37.6528,-82.821278
175,Floyd County,Allen Elementary School,175020,A1,Title 1 Eligible - Schoolwide School,MS,37.631525,-82.712701
175,Floyd County,Allen Elementary School,175020,A1,Title I Eligible - Schoolwide School,ES,37.631525,-82.712701
175,Floyd County,May Valley Elementary School,175021,A1,Title 1 Eligible - Schoolwide School,ES,37.556531,-82.778561
175,Floyd County,Allen Central Middle School,175022,,,MS,,
175,Floyd County,South Floyd Middle School,175023,,,MS,,
175,Floyd County,Allen Central High School,175025,,,HS,,
175,Floyd County,South Floyd Elementary School,175030,A1,Title I Eligible - Schoolwide School,ES,37.38267,-82.734762
175,Floyd County,South Floyd Elementary School,175030,A1,Title 1 Eligible - Schoolwide School,MS,37.38267,-82.734762
175,Floyd County,Renaissance Learning Center,175050,A5,Not a Title 1 School,HS,37.574866,-82.751545
175,Floyd County,Betsy Layne High School,175110,A1,Title 1 Eligible - Schoolwide School,HS,37.562756,-82.637925
175,Floyd County,Floyd Central High School,175115,A1,Title 1 Eligible - Schoolwide School,HS,37.499446,-82.804685
175,Floyd County,Betsy Layne Elementary School,175120,A1,Title I Eligible - Schoolwide School,ES,37.553814,-82.633323
175,Floyd County,Betsy Layne Elementary School,175120,A1,Title 1 Eligible - Schoolwide School,MS,37.553814,-82.633323
175,Floyd County,South Floyd High School,175150,,,MS,,
175,Floyd County,South Floyd High School,175150,,,HS,,
175,Floyd County,James D. Adams Middle School,175440,A1,Title 1 Eligible - Schoolwide School,MS,37.669046,-82.744072
175,Floyd County,James A. Duff Elementary School,175450,,,ES,,
175,Floyd County,John M. Stumbo Elementary School,175485,A1,Title 1 Eligible - Schoolwide School,MS,37.47546,-82.656124
175,Floyd County,John M. Stumbo Elementary School,175485,A1,Title I Eligible - Schoolwide School,ES,37.47546,-82.656124
175,Floyd County,McDowell Elementary School,175640,,,ES,,
175,Floyd County,Prestonsburg High School,175850,A1,Title 1 Eligible - Schoolwide School,HS,37.677046,-82.779425
175,Floyd County,W.D. Osborne Elementary School,175995,,,ES,,
176,Fort Thomas Independent,Highlands High School,176010,A1,Not a Title 1 School,HS,39.084037,-84.450491
176,Fort Thomas Independent,Highlands Middle School,176011,A1,Title 1 Eligible - No Program,MS,39.085282,-84.450442
176,Fort Thomas Independent,Johnson Elementary School,176020,A1,Not a Title 1 School,ES,39.09207,-84.447033
176,Fort Thomas Independent,Moyer Elementary School,176030,A1,Title 1 Eligible - Targeted Assistance School,ES,39.076907,-84.453548
176,Fort Thomas Independent,Woodfill Elementary School,176040,A1,Title 1 Eligible - Targeted Assistance School,ES,39.059081,-84.451894
177,Frankfort Independent,Second Street School,177050,A1,Title I Eligible - Schoolwide School,ES,38.195364,-84.881113
177,Frankfort Independent,Second Street School,177050,A1,Title 1 Eligible - Schoolwide School,MS,38.195364,-84.881113
177,Frankfort Independent,Frankfort High School,177070,A1,Title 1 Eligible - Schoolwide School,HS,38.19273,-84.876796
177,Frankfort Independent,Frankfort High School,177070,A1,Title I Eligible - Schoolwide School,MS,38.19273,-84.876796
177,Frankfort Independent,Panther Transition Academy,177080,A5,Not a Title 1 School,HS,38.192721,-84.876801
181,Franklin County,The Academy,181011,A6,Not a Title 1 School,HS,38.173028,-84.818617
181,Franklin County,Franklin County Career and Technical Ctr,181012,A2,Not a Title 1 School,HS,38.212549,-84.826308
181,Franklin County,Westridge Elementary,181013,A1,Title 1 Eligible - Schoolwide School,ES,38.198085,-84.907821
181,Franklin County,Bridgeport Elementary School,181014,A1,Title 1 Eligible - Schoolwide School,ES,38.162337,-84.904409
181,Franklin County,Bondurant Middle School,181015,A1,Title 1 Eligible - No Program,MS,38.164899,-84.907617
181,Franklin County,Early Learning Village,181016,A1,Title 1 Eligible - Schoolwide School,ES,38.193388,-84.831264
181,Franklin County,Collins Lane,181025,A1,Title 1 Eligible - Schoolwide School,ES,38.177693,-84.887638
181,Franklin County,Elkhorn Middle School,181030,A1,Title 1 Eligible - No Program,MS,38.209744,-84.828463
181,Franklin County,Elkhorn Elementary School,181035,A1,Title 1 Eligible - Schoolwide School,ES,38.209125,-84.835769
181,Franklin County,Franklin County High School,181040,A1,Title 1 Eligible - No Program,HS,38.211,-84.826889
181,Franklin County,Hearn Elementary,181045,A1,Title 1 Eligible - Schoolwide School,ES,38.192225,-84.81353
181,Franklin County,Peaks Mill Elementary,181050,A1,Title 1 Eligible - Schoolwide School,ES,38.227002,-84.84857
181,Franklin County,Western Hills High School,181070,A1,Title 1 Eligible - No Program,HS,38.162036,-84.908096
181,Franklin County,William Cofield High School,181072,A5,Not a Title 1 School,HS,38.211802,-84.8126527
181,Franklin County,Future Forward Education & Career Center,181075,A6,Not a Title 1 School,HS,38.112295,-84.546379
185,Fulton County,Fulton County Middle School,185015,A1,Title 1 Eligible - Schoolwide School,MS,36.566753,-89.15647
185,Fulton County,Fulton County Elementary,185020,A1,Title 1 Eligible - Schoolwide School,ES,36.567498,-89.156845
185,Fulton County,Fulton County Elementary,185020,A1,Title I Eligible - Schoolwide School,MS,36.567498,-89.156845
185,Fulton County,Fulton County High School,185030,A1,Title 1 Eligible - Schoolwide School,HS,36.567897,-89.156901
186,Fulton Independent,Fulton Independent School,186018,A1,Title I Eligible - Schoolwide School,ES,36.509441,-88.890061
186,Fulton Independent,Fulton Independent School,186018,A1,Title I Eligible - Schoolwide School,MS,36.509441,-88.890061
186,Fulton Independent,Fulton Independent School,186018,A1,Title 1 Eligible - Schoolwide School,HS,36.509441,-88.890061
191,Gallatin County,Gallatin County Middle School,191005,A1,Title 1 Eligible - Schoolwide School,MS,38.785566,-84.891136
191,Gallatin County,Gallatin County Upper Elementary,191006,A1,Title 1 Eligible - Schoolwide School,ES,38.785445,-84.891844
191,Gallatin County,Gallatin County Lower Elementary,191010,A1,Title 1 Eligible - Schoolwide School,ES,38.784303,-84.894199
191,Gallatin County,Gallatin County High School,191020,A1,Title 1 Eligible - Schoolwide School,HS,38.786214,-84.888941
195,Garrard County,Camp Dick Robinson Elementary School,195050,A1,Title 1 Eligible - Schoolwide School,ES,37.696001,-84.663936
195,Garrard County,Garrard County High School,195060,A1,Title 1 Eligible - No Program,HS,37.601902,-84.570254
195,Garrard County,Garrard Middle School,195070,A1,Title 1 Eligible - Schoolwide School,MS,37.622472,-84.583413
195,Garrard County,Paint Lick Elementary School,195090,A1,Title 1 Eligible - Schoolwide School,ES,37.586745,-84.470684
195,Garrard County,Lancaster Elementary School,195220,A1,Title 1 Eligible - Schoolwide School,ES,37.622081,-84.579185
197,Glasgow Independent,Success Academy,197002,A5,Not a Title 1 School,HS,37.00813333,-85.88898333
197,Glasgow Independent,Highland Elementary School,197013,A1,Title 1 Eligible - Schoolwide School,ES,37.01161667,-85.89076667
197,Glasgow Independent,Happy Valley Learning Center,197015,A5,Not a Title 1 School,HS,37.00681667,-85.91835
197,Glasgow Independent,Glasgow High School,197030,A1,Title 1 Eligible - Schoolwide School,HS,37.00813333,-85.88898333
197,Glasgow Independent,Glasgow Middle School,197035,A1,Title 1 Eligible - Schoolwide School,MS,37.01063333,-85.88613333
197,Glasgow Independent,South Green Elementary School,197065,A1,Title 1 Eligible - Schoolwide School,ES,36.98071667,-85.93028333
201,Grant County,Sherman Elementary,201016,A1,Title 1 Eligible - Schoolwide School,ES,38.725513,-84.600541
201,Grant County,Crittenden-Mt. Zion Elementary,201020,A1,Title 1 Eligible - Schoolwide School,ES,38.764842,-84.610894
201,Grant County,Dry Ridge Elementary,201030,A1,Title 1 Eligible - Schoolwide School,ES,38.669505,-84.580324
201,Grant County,Grant County High School,201040,A1,Title 1 Eligible - No Program,HS,38.684265,-84.618508
201,Grant County,Mason-Corinth Elementary,201050,A1,Title 1 Eligible - Schoolwide School,ES,38.596397,-84.579101
201,Grant County,Grant County Middle School,201080,A1,Title 1 Eligible - No Program,MS,38.667476,-84.579783
205,Graves County,Cuba Elementary School,205010,,,ES,,
205,Graves County,Mayfield Youth Development Center,205011,A6,Not a Title 1 School,HS,36.713983,-88.676146
205,Graves County,Gateway Academy High School,205012,A5,Not a Title 1 School,HS,36.761116,-88.656395
205,Graves County,Graves County Central Elementary,205013,A1,Title 1 Eligible - Schoolwide School,ES,36.761742,-88.659279
205,Graves County,Fancy Farm Elementary School,205040,A1,Title 1 Eligible - Schoolwide School,ES,36.794633,-88.791158
205,Graves County,Farmington Elementary School,205060,A1,Title 1 Eligible - Schoolwide School,ES,36.67325,-88.537068
205,Graves County,Graves County Middle School,205100,A1,Title 1 Eligible - No Program,MS,36.763074,-88.65069
205,Graves County,Lowes Elementary School,205110,A1,Title I Eligible - Schoolwide School,ES,36.883184,-88.772459
205,Graves County,Sedalia Elementary School,205150,A1,Title 1 Eligible - Schoolwide School,ES,36.646948,-88.604804
205,Graves County,Symsonia Elementary School,205170,A1,Title 1 Eligible - Schoolwide School,ES,36.916231,-88.519535
205,Graves County,Wingo Elementary School,205200,A1,Title 1 Eligible - Schoolwide School,ES,36.64225,-88.742596
205,Graves County,Graves County High School,205215,A1,Title 1 Eligible - No Program,HS,36.760853,-88.65339
211,Grayson County,Grayson County Schools Preschool Center,211005,A4,Not a Title 1 School,,37.483134,-86.283642
211,Grayson County,H W Wilkey Elementary School,211010,A1,Title 1 Eligible - Schoolwide School,ES,37.482318,-86.284516
211,Grayson County,Caneyville Elementary School,211030,A1,Title 1 Eligible - Schoolwide School,ES,37.421882,-86.476427
211,Grayson County,Oran P Lawler Elementary School,211050,A1,Title 1 Eligible - Schoolwide School,ES,37.464675,-86.340487
211,Grayson County,Clarkson Elementary School,211080,A1,Title 1 Eligible - Schoolwide School,ES,37.494159,-86.21769
211,Grayson County,Grayson County High School,211085,A1,Title 1 Eligible - No Program,HS,37.463343,-86.337079
211,Grayson County,Grayson County Middle School,211095,A1,Title 1 Eligible - Schoolwide School,MS,37.483202,-86.282614
211,Grayson County,Grayson Co. Alternative Education,211220,A5,Not a Title 1 School,HS,37.463328,-86.337147
211,Grayson County,Grayson County Area Vocational Ed Center,211908,A2,Not a Title 1 School,HS,37.464082,-86.338307
215,Green County,Green County Primary School,215030,A1,Title 1 Eligible - Schoolwide School,ES,37.259383,-85.491466
215,Green County,Green County Intermediate School,215040,A1,Title 1 Eligible - Schoolwide School,ES,37.259972,-85.495478
215,Green County,Green County Middle School,215055,A1,Title 1 Eligible - Schoolwide School,MS,37.254183,-85.48799
215,Green County,Green County High School,215065,A1,Title 1 Eligible - No Program,HS,37.256009,-85.488742
221,Greenup County,Argillite Elementary School,221010,A1,Title 1 Eligible - Schoolwide School,ES,38.511766,-82.819211
221,Greenup County,Wurtland Middle School,221024,A1,Title 1 Eligible - Schoolwide School,MS,38.548789,-82.775054
221,Greenup County,Greenup County High School,221027,A1,Title 1 Eligible - No Program,HS,38.631144,-82.870304
221,Greenup County,Greysbranch Elementary School,221040,A1,Title 1 Eligible - Schoolwide School,ES,38.632731,-82.869896
221,Greenup County,Mckell Elementary School,221060,A1,Title 1 Eligible - Schoolwide School,ES,38.723999,-82.94828
221,Greenup County,Mckell Middle School,221105,A1,Title 1 Eligible - Schoolwide School,MS,38.721678,-82.947559
221,Greenup County,Wurtland Elementary School,221110,A1,Title 1 Eligible - Schoolwide School,ES,38.546264,-82.775558
225,Hancock County,Hancock County High School,225005,A1,Title 1 Eligible - No Program,HS,37.917914,-86.802761
225,Hancock County,North Hancock Elementary School,225006,A1,Title 1 Eligible - Schoolwide School,ES,37.923272,-86.852436
225,Hancock County,Hancock County Middle School,225007,A1,Title 1 Eligible - No Program,MS,37.917875,-86.804822
225,Hancock County,South Hancock Elementary School,225070,A1,Title 1 Eligible - Schoolwide School,ES,37.783453,-86.775159
231,Hardin County,East Hardin Middle School,231005,A1,Title 1 Eligible - Schoolwide School,MS,37.599059,-85.908311
231,Hardin County,Woodland Elementary School,231008,A1,Title 1 Eligible - Schoolwide School,ES,37.800045,-85.929846
231,Hardin County,John Hardin High School,231013,A1,Title 1 Eligible - Schoolwide School,HS,37.755034,-85.903605
231,Hardin County,Lakewood Elementary School,231014,A1,Title 1 Eligible - Schoolwide School,ES,37.614694,-86.014902
231,Hardin County,Bluegrass Middle School,231015,A1,Title 1 Eligible - Schoolwide School,MS,37.756865,-85.901524
231,Hardin County,Creekside Elementary School,231017,A1,Title 1 Eligible - Schoolwide School,ES,37.522045,-85.901686
231,Hardin County,Heartland Elementary School,231018,A1,Title 1 Eligible - Schoolwide School,ES,37.735071,-85.85431
231,Hardin County,G C Burkhead Elementary School,231020,A1,Title 1 Eligible - Schoolwide School,ES,37.695342,-85.905963
231,Hardin County,North Park Elementary School,231021,A1,Title 1 Eligible - Schoolwide School,ES,37.821337,-85.944531
231,Hardin County,College View Campus,231025,A5,Not a Title 1 School,HS,37.688585,-85.886196
231,Hardin County,Cecilia Valley Elementary School,231030,A1,Title 1 Eligible - Schoolwide School,ES,37.657909,-85.947567
231,Hardin County,New Highland Elementary School,231040,A1,Title 1 Eligible - Schoolwide School,ES,37.758454,-85.900298
231,Hardin County,Lincoln Trail Elementary School,231050,A1,Title 1 Eligible - Schoolwide School,ES,37.722499,-85.814804
231,Hardin County,Early College and Career Center,231070,A2,Not a Title 1 School,HS,37.693431,-85.879304
231,Hardin County,North Hardin High School,231075,A1,Title 1 Eligible - Schoolwide School,HS,37.824071,-85.948322
231,Hardin County,James T Alton Middle School,231077,A1,Title 1 Eligible - Schoolwide School,MS,37.804909,-85.98833
231,Hardin County,Radcliff Elementary School,231079,A1,Title 1 Eligible - Schoolwide School,ES,37.826586,-85.929193
231,Hardin County,North Middle School,231080,A1,Title 1 Eligible - Schoolwide School,MS,37.818131,-85.952538
231,Hardin County,Rineyville Elementary School,231090,A1,Title 1 Eligible - Schoolwide School,ES,37.746675,-85.971976
231,Hardin County,Vine Grove Elementary School,231165,A1,Title 1 Eligible - Schoolwide School,ES,37.805139,-85.987758
231,Hardin County,West Hardin Middle School,231168,A1,Title 1 Eligible - Schoolwide School,MS,37.616727,-86.018161
231,Hardin County,Hardin County Day Treatment Center,231180,A6,Not a Title 1 School,HS,37.706585,-85.883663
231,Hardin County,Central Hardin High School,231190,A1,Title 1 Eligible - Schoolwide School,HS,37.675339,-85.907243
231,Hardin County,Meadow View Elementary School,231210,A1,Title 1 Eligible - Schoolwide School,ES,37.827143,-85.955626
231,Hardin County,Lincoln Trail Behavioral Health Systems,231979,A6,Not a Title 1 School,HS,37.788205,-85.914976
231,Hardin County,Spectrum Care Academy,231982,A5,Not a Title 1 School,MS,37.716056,-85.810939
235,Harlan County,Harlan County High School,235025,A1,Title 1 Eligible - Schoolwide School,HS,36.885092,-83.275324
235,Harlan County,Black Mountain Elementary School,235060,A1,Title I Eligible - Schoolwide School,ES,36.857581,-83.169148
235,Harlan County,Black Mountain Elementary School,235060,A1,Title 1 Eligible - Schoolwide School,MS,36.857581,-83.169148
235,Harlan County,Cawood Elementary School,235110,A1,Title 1 Eligible - Schoolwide School,MS,36.784367,-83.22939
235,Harlan County,Cawood Elementary School,235110,A1,Title I Eligible - Schoolwide School,ES,36.784367,-83.22939
235,Harlan County,Cumberland Elementary School,235195,A1,Title I Eligible - Schoolwide School,ES,36.971762,-82.976229
235,Harlan County,Cumberland Elementary School,235195,A1,Title 1 Eligible - Schoolwide School,MS,36.971762,-82.976229
235,Harlan County,Evarts Elementary School,235290,A1,Title I Eligible - Schoolwide School,ES,36.868636,-83.193192
235,Harlan County,Evarts Elementary School,235290,A1,Title 1 Eligible - Schoolwide School,MS,36.868636,-83.193192
235,Harlan County,Green Hills Elementary School,235325,A1,Title I Eligible - Schoolwide School,ES,36.899821,-83.347776
235,Harlan County,Green Hills Elementary School,235325,A1,Title 1 Eligible - Schoolwide School,MS,36.899821,-83.347776
235,Harlan County,James A. Cawood Elementary,235340,A1,Title 1 Eligible - Schoolwide School,MS,39.010901,-84.581346
235,Harlan County,James A. Cawood Elementary,235340,A1,Title I Eligible - Schoolwide School,ES,39.010901,-84.581346
235,Harlan County,Rosspoint Elementary School,235540,A1,Title I Eligible - Schoolwide School,ES,36.883247,-83.290141
235,Harlan County,Rosspoint Elementary School,235540,A1,Title 1 Eligible - Schoolwide School,MS,36.883247,-83.290141
235,Harlan County,Wallins Elementary School,235640,A1,Title I Eligible - Schoolwide School,ES,36.822309,-83.412098
235,Harlan County,Wallins Elementary School,235640,A1,Title 1 Eligible - Schoolwide School,MS,36.822309,-83.412098
236,Harlan Independent,Harlan Elementary School,236020,A1,Title 1 Eligible - Schoolwide School,ES,36.847225,-83.317458
236,Harlan Independent,Harlan High School,236030,A1,Title 1 Eligible - Schoolwide School,HS,36.847015,-83.31866
236,Harlan Independent,Harlan High School,236030,A1,Title I Eligible - Schoolwide School,MS,36.847015,-83.31866
241,Harrison County,Eastside Elementary School,241035,A1,Title 1 Eligible - Schoolwide School,ES,38.3999291,-84.275398
241,Harrison County,Harrison County Learning Center,241037,A5,Not a Title 1 School,HS,38.380846,-84.29411
241,Harrison County,Southside Elementary School,241038,A1,Title 1 Eligible - Schoolwide School,ES,38.381421,-84.290103
241,Harrison County,Harrison County High School,241040,A1,Title 1 Eligible - No Program,HS,38.381441,-84.293992
241,Harrison County,Harrison County Middle School,241043,A1,Title 1 Eligible - No Program,MS,38.380158,-84.287929
241,Harrison County,Northside Elementary School,241045,A1,Title 1 Eligible - Schoolwide School,ES,38.422033,-84.284085
241,Harrison County,Westside Elementary School,241075,A1,Title 1 Eligible - Schoolwide School,ES,38.393707,-84.325917
245,Hart County,Bonnieville Elementary School,245010,A1,Title 1 Eligible - Schoolwide School,MS,37.38122,-85.90279
245,Hart County,Bonnieville Elementary School,245010,A1,Title I Eligible - Schoolwide School,ES,37.38122,-85.90279
245,Hart County,Cub Run Elementary School,245030,A1,Title I Eligible - Schoolwide School,ES,37.302909,-86.061508
245,Hart County,Cub Run Elementary School,245030,A1,Title 1 Eligible - Schoolwide School,MS,37.302909,-86.061508
245,Hart County,Hart County High School,245045,A1,Title 1 Eligible - No Program,HS,37.259902,-85.882138
245,Hart County,Legrande Elementary School,245050,A1,Title 1 Eligible - Schoolwide School,MS,37.170923,-85.795016
245,Hart County,Legrande Elementary School,245050,A1,Title I Eligible - Schoolwide School,ES,37.170923,-85.795016
245,Hart County,Memorial Elementary School,245070,A1,Title 1 Eligible - Schoolwide School,MS,37.271903,-85.774281
245,Hart County,Memorial Elementary School,245070,A1,Title I Eligible - Schoolwide School,ES,37.271903,-85.774281
245,Hart County,Munfordville Elementary School,245090,A1,Title I Eligible - Schoolwide School,ES,37.268271,-85.8934
245,Hart County,Munfordville Elementary School,245090,A1,Title 1 Eligible - Schoolwide School,MS,37.268271,-85.8934
246,Hazard Independent,Hazard High School,246010,A1,Title 1 Eligible - Schoolwide School,HS,37.24045,-83.186894
246,Hazard Independent,Hazard Middle School,246045,A1,Title 1 Eligible - Schoolwide School,MS,37.26356,-83.1922824
246,Hazard Independent,Roy G. Eversole Elementary School,246060,A1,Title 1 Eligible - Schoolwide School,ES,37.253564,-83.191519
251,Henderson County,Bend Gate Elementary School,251010,A1,Title 1 Eligible - Schoolwide School,ES,37.86594,-87.557888
251,Henderson County,The Central Academy,251015,A5,Title 1 Eligible - Schoolwide School,HS,37.834147,-87.583401
251,Henderson County,Cairo Elementary School,251020,A1,Title 1 Eligible - Schoolwide School,ES,37.746851,-87.654213
251,Henderson County,A B Chandler Elementary School,251030,A1,Title 1 Eligible - Schoolwide School,ES,37.75725,-87.70045
251,Henderson County,East Heights Elementary School,251033,A1,Title 1 Eligible - Schoolwide School,ES,37.824639,-87.547427
251,Henderson County,Henderson County High School,251060,A1,Title 1 Eligible - Schoolwide School,HS,37.828046,-87.559745
251,Henderson County,Henderson County North Middle School,251065,A1,Title 1 Eligible - Schoolwide School,MS,37.832072,-87.569493
251,Henderson County,Niagara Elementary School,251070,A1,Title 1 Eligible - Schoolwide School,ES,37.734436,-87.5101
251,Henderson County,South Heights Elementary School,251091,A1,Title 1 Eligible - Schoolwide School,ES,37.821809,-87.58852
251,Henderson County,Spottsville Elementary School,251110,A1,Title 1 Eligible - Schoolwide School,ES,37.859073,-87.453291
251,Henderson County,Henderson County South Middle School,251150,A1,Title 1 Eligible - Schoolwide School,MS,37.825577,-87.595239
251,Henderson County,Jefferson Elementary School,251160,A1,Title 1 Eligible - Schoolwide School,ES,37.830291,-87.597991
255,Henry County,Campbellsburg Elementary School,255010,A1,Title 1 Eligible - Schoolwide School,ES,38.524552,-85.193736
255,Henry County,Eastern Elementary School,255020,A1,Title 1 Eligible - Schoolwide School,ES,38.432224,-85.039331
255,Henry County,Henry County High School,255035,A1,Title 1 Eligible - Schoolwide School,HS,38.41885,-85.169322
255,Henry County,Henry County Middle School,255038,A1,Title 1 Eligible - Schoolwide School,MS,38.419897,-85.16816
255,Henry County,New Castle Elementary School,255040,A1,Title 1 Eligible - Schoolwide School,ES,38.431892,-85.167548
261,Hickman County,Hickman County Elementary School,261020,A1,Title 1 Eligible - Schoolwide School,ES,36.669213,-88.988456
261,Hickman County,Hickman County High School,261050,A1,Title 1 Eligible - Schoolwide School,HS,36.670876,-88.991557
261,Hickman County,Hickman County High School,261050,A1,Title I Eligible - Schoolwide School,MS,36.670876,-88.991557
265,Hopkins County,Hopkins County Schools Academy,265004,A5,Not a Title 1 School,HS,37.327676,-87.500353
265,Hopkins County,Hopkins County Day Treatment,265005,A6,Not a Title 1 School,HS,37.327013,-87.500927
265,Hopkins County,West Hopkins School,265006,A1,Title I Eligible - Schoolwide School,ES,37.306359,-87.704844
265,Hopkins County,West Hopkins School,265006,A1,Title 1 Eligible - Schoolwide School,MS,37.306359,-87.704844
265,Hopkins County,Jesse Stuart Elementary School,265020,A1,Title 1 Eligible - Schoolwide School,ES,37.328719,-87.467388
265,Hopkins County,James Madison Middle School,265075,A1,Title 1 Eligible - Schoolwide School,MS,37.333178,-87.473107
265,Hopkins County,Grapevine Elementary School,265090,A1,Title 1 Eligible - Schoolwide School,ES,37.309879,-87.487907
265,Hopkins County,Hopkins Co Career & Technology Center,265105,A2,Not a Title 1 School,HS,37.331118,-87.471117
265,Hopkins County,Hanson Elementary School,265110,A1,Title 1 Eligible - Schoolwide School,ES,37.41721,-87.478831
265,Hopkins County,Hopkins County Central High School,265130,A1,Title 1 Eligible - Schoolwide School,HS,37.249665,-87.481315
265,Hopkins County,Browning Springs Middle School,265140,A1,Title 1 Eligible - Schoolwide School,MS,37.331094,-87.508254
265,Hopkins County,Madisonville North Hopkins High School,265145,A1,Title 1 Eligible - Schoolwide School,HS,37.380806,-87.494652
265,Hopkins County,South Hopkins Middle School,265185,A1,Title 1 Eligible - Schoolwide School,MS,37.216237,-87.466518
265,Hopkins County,Pride Elementary School,265200,A1,Title 1 Eligible - Schoolwide School,ES,37.342253,-87.505903
265,Hopkins County,West Broadway Elementary School,265250,A1,Title 1 Eligible - Schoolwide School,ES,37.325932,-87.501789
265,Hopkins County,Southside Elementary School,265280,A1,Title 1 Eligible - Schoolwide School,ES,37.21384,-87.46611
265,Hopkins County,Earlington Elementary School,265330,A1,Title 1 Eligible - Schoolwide School,ES,37.265421,-87.516299
271,Jackson County,Jackson County High School,271020,A1,Title 1 Eligible - Schoolwide School,HS,37.43766413,-83.98632552
271,Jackson County,Jackson County Middle School,271025,A1,Title 1 Eligible - Schoolwide School,MS,37.422384,-83.944873
271,Jackson County,Barnabus Home Middle School,271027,A6,Not a Title 1 School,MS,37.318605,-83.974845
271,Jackson County,Barnabus Home High School,271029,A6,Not a Title 1 School,HS,37.318605,-83.974845
271,Jackson County,Jackson Co Schools Learning Center,271031,A5,Not a Title 1 School,HS,37.421999,-83.947782
271,Jackson County,McKee Elementary School,271180,A1,Title 1 Eligible - Schoolwide School,ES,37.442575,-83.992615
271,Jackson County,Sand Gap Elementary School,271280,A1,Title 1 Eligible - Schoolwide School,ES,37.482681,-84.083503
271,Jackson County,Tyner Elementary School,271340,A1,Title 1 Eligible - Schoolwide School,ES,37.344007,-83.929401
272,Jackson Independent,Jackson City School,272011,A1,Title I Eligible - Schoolwide School,ES,37.553221,-83.379781
272,Jackson Independent,Jackson City School,272011,A1,Title 1 Eligible - Schoolwide School,HS,37.553221,-83.379781
272,Jackson Independent,Jackson City School,272011,A1,Title I Eligible - Schoolwide School,MS,37.553221,-83.379781
275,Jefferson County,Camp Taylor Elementary,275004,A1,Title 1 Eligible - Schoolwide School,ES,38.196553,-85.719415
275,Jefferson County,Cane Run Elementary,275005,A1,Title 1 Eligible - Schoolwide School,ES,38.209519,-85.822595
275,Jefferson County,Eastern High,275007,A1,Title 1 Eligible - No Program,HS,38.243661,-85.526094
275,Jefferson County,Fairdale Elementary,275010,A1,Title 1 Eligible - Schoolwide School,ES,38.104986,-85.762138
275,Jefferson County,Fern Creek Elementary,275011,A1,Title 1 Eligible - Schoolwide School,ES,38.156609,-85.595173
275,Jefferson County,Fern Creek High,275012,A1,Title 1 Eligible - Schoolwide School,HS,38.156027,-85.592114
275,Jefferson County,Greathouse/Shryock Traditional,275013,A1,Not a Title 1 School,ES,38.225977,-85.622397
275,Jefferson County,Greenwood Elementary,275014,A1,Title 1 Eligible - Schoolwide School,ES,38.145253,-85.861105
275,Jefferson County,Tully Elementary,275016,A1,Title 1 Eligible - No Program,ES,38.196302,-85.571193
275,Jefferson County,Atherton High,275018,A1,Title 1 Eligible - No Program,HS,38.213731,-85.689399
275,Jefferson County,The Brook-Dupont,275019,A6,Not a Title 1 School,MS,38.23543477,-85.62789425
275,Jefferson County,The Brook-KMI,275020,A6,Not a Title 1 School,HS,38.27228888,-85.59643592
275,Jefferson County,Medora Elementary,275022,A1,Title 1 Eligible - Schoolwide School,ES,38.090422,-85.874912
275,Jefferson County,Middletown Elementary,275024,A1,Title 1 Eligible - No Program,ES,38.248481,-85.54139
275,Jefferson County,Okolona Elementary,275027,A1,Title 1 Eligible - Schoolwide School,ES,38.140835,-85.689584
275,Jefferson County,Boys & Girls Haven,275028,A6,Not a Title 1 School,HS,38.21119104,-85.669221
275,Jefferson County,St Joseph Children's Home,275029,A6,Not a Title 1 School,MS,38.25609979,-85.68967406
275,Jefferson County,Liberty High,275030,A5,Title 1 Eligible - Schoolwide School,HS,38.17964,-85.705758
275,Jefferson County,Southern High,275031,A1,Title 1 Eligible - Schoolwide School,HS,38.12671,-85.680982
275,Jefferson County,Valley High,275033,A1,Title 1 Eligible - Schoolwide School,HS,38.107709,-85.867731
275,Jefferson County,Valley High,275033,A1,Title I Eligible - Schoolwide School,MS,38.107709,-85.867731
275,Jefferson County,Waller-Williams Environmental,275034,A3,Title 1 Eligible - Schoolwide School,HS,38.177505,-85.843165
275,Jefferson County,Breckinridge-Franklin Elementary,275038,A1,Title 1 Eligible - Schoolwide School,ES,38.249314,-85.723794
275,Jefferson County,Barret Traditional Middle,275040,A1,Title 1 Eligible - No Program,MS,38.249299,-85.695926
275,Jefferson County,Newburg Middle,275041,A1,Title 1 Eligible - Schoolwide School,MS,38.18011,-85.668644
275,Jefferson County,Audubon Traditional Elementary,275044,A1,Title 1 Eligible - No Program,ES,38.207935,-85.731189
275,Jefferson County,Butler Traditional High,275045,A1,Title 1 Eligible - Schoolwide School,HS,38.193853,-85.815409
275,Jefferson County,Chenoweth Elementary,275046,A1,Title 1 Eligible - No Program,ES,38.263128,-85.668975
275,Jefferson County,Louisville Male High,275047,A1,Title 1 Eligible - No Program,HS,38.184683,-85.721019
275,Jefferson County,Hawthorne Elementary,275048,A1,Title 1 Eligible - No Program,ES,38.218073,-85.671559
275,Jefferson County,Farnsley Middle,275049,A1,Title 1 Eligible - Schoolwide School,MS,38.18472,-85.857808
275,Jefferson County,Georgia Chaffee Teenage Parent Program,275050,A5,Title 1 Eligible - Schoolwide School,HS,38.116049,-85.748735
275,Jefferson County,Waggener High,275051,A1,Title 1 Eligible - Schoolwide School,HS,38.244651,-85.636854
275,Jefferson County,Bates Elementary,275055,A1,Title 1 Eligible - No Program,ES,38.137156,-85.578923
275,Jefferson County,Fairdale High,275057,A1,Title 1 Eligible - Schoolwide School,HS,38.111982,-85.751208
275,Jefferson County,Gilmore Lane Elementary,275058,A1,Title I Eligible - Schoolwide School,ES,38.179514,-85.705996
275,Jefferson County,Kenwood Elementary,275059,A1,Title 1 Eligible - Schoolwide School,ES,38.145533,-85.78682
275,Jefferson County,Coral Ridge Elementary,275060,A1,Title 1 Eligible - Schoolwide School,ES,38.095167,-85.738829
275,Jefferson County,Goldsmith Elementary,275061,A1,Title 1 Eligible - Schoolwide School,ES,38.208169,-85.654353
275,Jefferson County,Schaffner Traditional Elementary,275063,A1,Title 1 Eligible - No Program,ES,38.195703,-85.824372
275,Jefferson County,St Matthews Elementary,275064,A1,Title 1 Eligible - No Program,ES,38.245714,-85.640896
275,Jefferson County,Jeffersontown High,275065,A1,Title 1 Eligible - Schoolwide School,HS,38.201366,-85.580854
275,Jefferson County,Wilkerson Elementary School,275066,A1,Title 1 Eligible - Schoolwide School,ES,38.122531,-85.87392
275,Jefferson County,Wilder Elementary,275067,A1,Title 1 Eligible - No Program,ES,38.278926,-85.622271
275,Jefferson County,Watson Lane Elementary,275069,A1,Title 1 Eligible - Schoolwide School,ES,38.060724,-85.897559
275,Jefferson County,Stonestreet Elementary,275071,A1,Title 1 Eligible - Schoolwide School,ES,38.108966,-85.834733
275,Jefferson County,Watterson Elementary,275072,A1,Title 1 Eligible - Schoolwide School,ES,38.191282,-85.626941
275,Jefferson County,Seneca High,275073,A1,Title 1 Eligible - Schoolwide School,HS,38.207742,-85.65485
275,Jefferson County,Pleasure Ridge Park High,275075,A1,Title 1 Eligible - Schoolwide School,HS,38.14571,-85.863694
275,Jefferson County,Indian Trail Elementary,275076,A1,Title 1 Eligible - Schoolwide School,ES,38.171026,-85.690741
275,Jefferson County,Westport Middle,275077,A1,Title 1 Eligible - Schoolwide School,MS,38.275798,-85.600769
275,Jefferson County,Zachary Taylor Elementary,275078,A1,Title 1 Eligible - Schoolwide School,ES,38.286632,-85.572853
275,Jefferson County,Kerrick Elementary,275079,A1,Title 1 Eligible - Schoolwide School,ES,38.165805,-85.837344
275,Jefferson County,Rangeland Elementary,275081,A1,Title 1 Eligible - Schoolwide School,ES,38.165695,-85.669476
275,Jefferson County,Dixie Elementary,275082,A1,Title 1 Eligible - Schoolwide School,ES,38.108139,-85.872333
275,Jefferson County,Cochrane Elementary,275083,A1,Title 1 Eligible - Schoolwide School,ES,38.21016,-85.574736
275,Jefferson County,Western High,275084,A1,Title 1 Eligible - Schoolwide School,HS,38.177534,-85.84463
275,Jefferson County,Robert Frost Sixth-Grade Academy,275085,A1,Title 1 Eligible - Schoolwide School,ES,38.108141,-85.8439
275,Jefferson County,Robert Frost Sixth-Grade Academy,275085,A1,Title I Eligible - Schoolwide School,MS,38.108141,-85.8439
275,Jefferson County,Sanders Elementary,275086,A1,Title 1 Eligible - Schoolwide School,ES,38.132229,-85.875792
275,Jefferson County,Smyrna Elementary School,275087,A1,Title 1 Eligible - Schoolwide School,ES,38.138545,-85.641064
275,Jefferson County,Thomas Jefferson Middle,275090,A1,Title 1 Eligible - Schoolwide School,MS,38.168384,-85.679373
275,Jefferson County,Blue Lick Elementary,275091,A1,Title 1 Eligible - Schoolwide School,ES,38.106182,-85.691518
275,Jefferson County,Crums Lane Elementary,275092,A1,Title 1 Eligible - Schoolwide School,ES,38.193132,-85.839263
275,Jefferson County,Bowen Elementary,275094,A1,Title 1 Eligible - No Program,ES,38.269814,-85.58193
275,Jefferson County,Hite Elementary,275095,A1,Title 1 Eligible - No Program,ES,38.238213,-85.524223
275,Jefferson County,Norton Elementary,275096,A1,Not a Title 1 School,ES,38.297506,-85.59978
275,Jefferson County,Shacklette Elementary,275097,A1,Title 1 Eligible - Schoolwide School,ES,38.159276,-85.854683
275,Jefferson County,Minors Lane Elementary,275099,A1,Title 1 Eligible - Schoolwide School,ES,38.125305,-85.714029
275,Jefferson County,Doss High,275100,A1,Title 1 Eligible - Schoolwide School,HS,38.153256,-85.812971
275,Jefferson County,Chancey Elementary,275102,A1,Title 1 Eligible - Schoolwide School,ES,38.307258,-85.535118
275,Jefferson County,Slaughter Elementary,275103,A1,Title 1 Eligible - Schoolwide School,ES,38.158744,-85.691773
275,Jefferson County,Trunnell Elementary,275104,A1,Title 1 Eligible - Schoolwide School,ES,38.153023,-85.814556
275,Jefferson County,Ballard High,275105,A1,Title 1 Eligible - No Program,HS,38.283285,-85.6247
275,Jefferson County,Johnsontown Road Elementary,275106,A1,Title 1 Eligible - Schoolwide School,ES,38.117226,-85.893444
275,Jefferson County,Luhr Elementary,275107,A1,Title 1 Eligible - Schoolwide School,ES,38.149118,-85.629239
275,Jefferson County,Wheeler Elementary,275109,A1,Title 1 Eligible - No Program,ES,38.166593,-85.57491
275,Jefferson County,Western Day Treatment,275110,A6,Not a Title 1 School,ES,38.221572,-85.775966
275,Jefferson County,Gutermuth Elementary,275115,A1,Title 1 Eligible - Schoolwide School,ES,38.177797,-85.807919
275,Jefferson County,Wellington Elementary,275116,A1,Title 1 Eligible - Schoolwide School,ES,38.18231,-85.86165
275,Jefferson County,Wilt Elementary,275117,A1,Title 1 Eligible - Schoolwide School,ES,38.102347,-85.637931
275,Jefferson County,Crosby Middle,275119,A1,Title 1 Eligible - No Program,MS,38.240546,-85.555618
275,Jefferson County,Hartstern Elementary,275121,A1,Title 1 Eligible - Schoolwide School,ES,38.141284,-85.666465
275,Jefferson County,U of L PACT Program,275124,A3,Not a Title 1 School,HS,38.21809,-85.75844
275,Jefferson County,Layne Elementary,275126,A1,Title 1 Eligible - Schoolwide School,ES,38.11041,-85.847759
275,Jefferson County,Auburndale Elementary,275127,A1,Title 1 Eligible - Schoolwide School,ES,38.134863,-85.771363
275,Jefferson County,Price Elementary,275128,A1,Title 1 Eligible - Schoolwide School,ES,38.176935,-85.665773
275,Jefferson County,Breckinridge Metropolitan High,275129,A5,Title 1 Eligible - Schoolwide School,HS,38.243875,-85.732485
275,Jefferson County,Eisenhower Elementary,275131,A1,Title 1 Eligible - Schoolwide School,ES,38.137838,-85.854894
275,Jefferson County,Lassiter Middle,275133,A1,Title 1 Eligible - Schoolwide School,MS,38.130511,-85.786229
275,Jefferson County,Klondike Lane Elementary,275134,A1,Title 1 Eligible - Schoolwide School,ES,38.208687,-85.637198
275,Jefferson County,Louisville Day,275138,A6,Not a Title 1 School,HS,38.26854674,-85.58961232
275,Jefferson County,Stuart Academy,275144,A1,Title 1 Eligible - Schoolwide School,MS,38.108122,-85.843867
275,Jefferson County,Laukhuf Elementary,275145,A1,Title 1 Eligible - Schoolwide School,ES,38.100287,-85.664193
275,Jefferson County,Lowe Elementary,275146,A1,Not a Title 1 School,ES,38.24536,-85.591879
275,Jefferson County,Mill Creek Elementary,275147,A1,Title 1 Eligible - Schoolwide School,ES,38.198203,-85.809932
275,Jefferson County,Blake Elementary,275149,A1,Title 1 Eligible - Schoolwide School,ES,38.123078,-85.694191
275,Jefferson County,Marion C. Moore School,275155,A1,Title I Eligible - Schoolwide School,MS,38.13947,-85.637375
275,Jefferson County,Marion C. Moore School,275155,A1,Title 1 Eligible - Schoolwide School,HS,38.13947,-85.637375
275,Jefferson County,Dunn Elementary,275156,A1,Not a Title 1 School,ES,38.284195,-85.643607
275,Jefferson County,Myers Middle School,275159,,,MS,,
275,Jefferson County,Kammerer Middle,275162,A1,Title 1 Eligible - No Program,MS,38.283609,-85.61907
275,Jefferson County,Knight Middle,275163,A1,Title 1 Eligible - Schoolwide School,MS,38.105443,-85.691556
275,Jefferson County,Conway Middle,275164,A1,Title 1 Eligible - Schoolwide School,MS,38.159385,-85.868002
275,Jefferson County,J. Graham Brown School,275165,A1,Not a Title 1 School,HS,38.249744,-85.752801
275,Jefferson County,J. Graham Brown School,275165,A1,Title I Eligible - No Program,ES,38.249744,-85.752801
275,Jefferson County,J. Graham Brown School,275165,A1,Title I Eligible - No Program,MS,38.249744,-85.752801
275,Jefferson County,Jeffersontown Elementary,275166,A1,Title 1 Eligible - Schoolwide School,ES,38.190493,-85.584616
275,Jefferson County,Carrithers Middle,275167,A1,Title 1 Eligible - Schoolwide School,MS,38.181334,-85.574213
275,Jefferson County,Alex R. Kennedy Elementary,275175,A1,Title 1 Eligible - Schoolwide School,ES,38.220155,-85.598247
275,Jefferson County,Central High Magnet Career Academy,275179,A1,Title 1 Eligible - Schoolwide School,HS,38.24999,-85.770814
275,Jefferson County,Wheatley Elementary,275182,A1,Title 1 Eligible - Schoolwide School,ES,38.239534,-85.783287
275,Jefferson County,Binet School,275183,A3,Not a Title 1 School,HS,38.208045,-85.656011
275,Jefferson County,Atkinson Academy,275185,A1,Title 1 Eligible - Schoolwide School,ES,38.265194,-85.797316
275,Jefferson County,Newcomer Academy,275186,A5,Title 1 Eligible - Schoolwide School,HS,38.203905,-85.643891
275,Jefferson County,W.E.B. DuBois Academy,275191,A5,Title 1 Eligible - Schoolwide School,MS,38.170892,-85.700419
275,Jefferson County,Mary Jo and William MacDonald Maryhurst,275193,A6,Not a Title 1 School,HS,38.26378318,-85.56580951
275,Jefferson County,duPont Manual High,275200,A1,Not a Title 1 School,HS,38.221835,-85.759055
275,Jefferson County,The Phoenix School of Discovery,275201,A5,Title 1 Eligible - Schoolwide School,HS,38.256265,-85.604619
275,Jefferson County,Minor Daniels Academy,275202,A5,Title 1 Eligible - Schoolwide School,HS,38.197918,-85.673172
275,Jefferson County,Stopher Elementary,275211,A1,Not a Title 1 School,ES,38.268134,-85.488522
275,Jefferson County,Farmer Elementary,275212,A1,Title 1 Eligible - No Program,ES,38.151372,-85.546195
275,Jefferson County,Ramsey Middle,275219,A1,Title 1 Eligible - Schoolwide School,MS,38.149593,-85.54606
275,Jefferson County,Bellewood,275220,A6,Not a Title 1 School,ES,38.26817813,-85.54403703
275,Jefferson County,Brooklawn,275221,A6,Not a Title 1 School,HS,38.2078182,-85.67524641
275,Jefferson County,Bloom Elementary,275225,A1,Not a Title 1 School,ES,38.236521,-85.719781
275,Jefferson County,Engelhard Elementary,275240,A1,Title 1 Eligible - Schoolwide School,ES,38.238092,-85.754919
275,Jefferson County,Byck Elementary,275243,A1,Title 1 Eligible - Schoolwide School,ES,38.255806,-85.790384
275,Jefferson County,Field Elementary,275250,A1,Title 1 Eligible - No Program,ES,38.25246,-85.677991
275,Jefferson County,Brandeis Elementary,275260,A1,Title 1 Eligible - No Program,ES,38.243894,-85.800076
275,Jefferson County,Foster Traditional Academy,275270,A1,Title 1 Eligible - Schoolwide School,ES,38.236927,-85.819899
275,Jefferson County,Frayser Elementary,275290,A1,Title 1 Eligible - Schoolwide School,ES,38.208506,-85.779777
275,Jefferson County,Hazelwood Elementary,275300,A1,Title 1 Eligible - Schoolwide School,ES,38.180504,-85.785933
275,Jefferson County,Highland Middle,275320,A1,Title 1 Eligible - Schoolwide School,MS,38.223359,-85.706544
275,Jefferson County,Cochran Elementary,275323,A1,Title 1 Eligible - Schoolwide School,ES,38.224716,-85.764215
275,Jefferson County,Jacob Elementary,275325,A1,Title 1 Eligible - Schoolwide School,ES,38.191643,-85.796035
275,Jefferson County,Iroquois High,275335,A1,Title 1 Eligible - Schoolwide School,HS,38.172586,-85.781585
275,Jefferson County,Meyzeek Middle,275340,A1,Title 1 Eligible - No Program,MS,38.241518,-85.746545
275,Jefferson County,Norton Commons Elementary,275371,A1,Not a Title 1 School,ES,38.328247,-85.56404
275,Jefferson County,Young Elementary,275374,A1,Title 1 Eligible - Schoolwide School,ES,38.256721,-85.810229
275,Jefferson County,Jefferson County Traditional Middle,275396,A1,Title 1 Eligible - No Program,MS,38.240229,-85.727445
275,Jefferson County,King Elementary,275432,A1,Title 1 Eligible - Schoolwide School,ES,38.257532,-85.823471
275,Jefferson County,Noe Middle,275435,A1,Title 1 Eligible - No Program,MS,38.223247,-85.758602
275,Jefferson County,Mcferran Preparatory Academy,275440,A1,Title 1 Eligible - Schoolwide School,ES,38.221572,-85.775966
275,Jefferson County,Ackerly,275456,A6,Not a Title 1 School,HS,38.24794,-85.750868
275,Jefferson County,Mary Ryan Academy,275458,A3,Not a Title 1 School,HS,38.170919,-85.700386
275,Jefferson County,Jefferson Regional Juvenile Detention Ce,275463,A6,Not a Title 1 School,HS,38.254264,-85.763222
275,Jefferson County,Heuser Hearing & Language Academy,275465,A3,Not a Title 1 School,ES,38.23864797,-85.75367407
275,Jefferson County,Johnson Traditional Middle,275470,A1,Title 1 Eligible - Schoolwide School,MS,38.236275,-85.795736
275,Jefferson County,Maupin Elementary,275480,A1,Title 1 Eligible - Schoolwide School,ES,38.235986,-85.802059
275,Jefferson County,Portland Elementary,275500,A1,Title 1 Eligible - Schoolwide School,ES,38.274474,-85.802966
275,Jefferson County,Lincoln Elementary Performing Arts,275520,A1,Title 1 Eligible - No Program,ES,38.253984,-85.734239
275,Jefferson County,Roosevelt-Perry Elementary,275530,A1,Title I Eligible - Schoolwide School,ES,38.249549,-85.778643
275,Jefferson County,Rutherford Elementary,275560,A1,Title 1 Eligible - Schoolwide School,ES,38.172242,-85.768909
275,Jefferson County,Semple Elementary,275580,A1,Title 1 Eligible - Schoolwide School,ES,38.195602,-85.772019
275,Jefferson County,The Academy @ Shawnee,275590,A1,Title 1 Eligible - Schoolwide School,HS,38.262202,-85.815674
275,Jefferson County,The Academy @ Shawnee,275590,A1,Title I Eligible - Schoolwide School,MS,38.262202,-85.815674
275,Jefferson County,Shelby Traditional Academy,275610,A1,Title 1 Eligible - Schoolwide School,ES,38.223316,-85.74459
275,Jefferson County,Frederick Law Olmsted Academy North,275620,A1,Title 1 Eligible - Schoolwide School,MS,38.187038,-85.774089
275,Jefferson County,Coleridge-Taylor Montessori Elementary,275660,A1,Title 1 Eligible - Schoolwide School,ES,38.250505,-85.770174
275,Jefferson County,Carter Traditional Elementary,275680,A1,Title 1 Eligible - Schoolwide School,ES,38.228259,-85.814747
275,Jefferson County,Western Middle School for the Arts,275710,A1,Title 1 Eligible - Schoolwide School,MS,38.260542,-85.786455
275,Jefferson County,Kennedy Montessori Elementary,275720,A1,Title 1 Eligible - Schoolwide School,ES,38.231782,-85.81866
275,Jefferson County,Frederick Law Olmsted Academy South,275730,A1,Title 1 Eligible - Schoolwide School,MS,38.172172,-85.778692
275,Jefferson County,Home of the Innocents Discovery,275768,A6,Not a Title 1 School,HS,38.25187899,-85.73092966
275,Jefferson County,Home of the Innocents School,275769,A6,Not a Title 1 School,HS,38.25187899,-85.73092966
275,Jefferson County,Peace Academy,275784,A6,Not a Title 1 School,HS,38.21843227,-85.71047935
275,Jefferson County,Grace M. James Academy of Excellence,275800,A5,Title 1 Eligible - Schoolwide School,MS,38.249565,-85.778648
275,Jefferson County,Churchill Park School,275917,A3,Not a Title 1 School,HS,38.205957,-85.751759
275,Jefferson County,Ahrens Educational Resource Center,275920,A3,Not a Title 1 School,HS,38.249731,-85.752806
275,Jefferson County,Pathfinder School of Innovation,275951,A5,Not a Title 1 School,HS,38.240027,-85.750808
276,Jenkins Independent,Jenkins Independent School,276011,A1,Title I Eligible - Schoolwide School,MS,37.16218,-82.644195
276,Jenkins Independent,Jenkins Independent School,276011,A1,Title I Eligible - Schoolwide School,ES,37.16218,-82.644195
276,Jenkins Independent,Jenkins Independent School,276011,A1,Title 1 Eligible - Schoolwide School,HS,37.16218,-82.644195
281,Jessamine County,Hattie C. Warner Elementary School,281018,A1,Title 1 Eligible - Schoolwide School,ES,37.88363,-84.588332
